{"properties":[{"property_id":"P001","address":"Werribee VIC 3030","suburb":"Werribee","price":720000,"bedrooms":3,"bathrooms":2,"car_spaces":1,"property_type":"townhouse","lat":-37.902,"lon":144.66,"lga":"Wyndham (C)","notes":"western growth corridor, rail access","nearest_train_km":0.31,"nearest_train":"Werribee Railway Station (Werribee)","nearest_bus_km":0.13,"nearest_bus":"Bridge St/Synnot St (Werribee)","nearest_tram_km":23.67,"nearest_tram":"58-Ballarat Rd/Gordon St (Footscray)","nearest_school_km":0.55,"nearest_school":"Werribee Primary School","nearest_health_km":3.73,"nearest_health":"Mercy Public Hospital Inc.[Werribee]","nearest_sport_km":0.43,"nearest_sport":"Aerobics","nearest_retail_km":3.45,"nearest_retail":"Pacific Werribee","stops_400m":14,"stops_800m":30,"stops_2km":121,"mode_diversity_2km":2,"schools_5km":21,"health_5km":1,"sport_2km":30,"retail_2km":0,"target_distances":[{"target":"Melbourne CBD","km":28.37},{"target":"Deakin Burwood","km":40.38},{"target":"University of Melbourne","km":28.83},{"target":"Melbourne Airport","km":30.4}],"weighted_target_km":31.67,"transport_score":93.3,"amenity_score":62.5,"commute_score":31.3,"overall_score":63.9,"lga_travel_time_to_melbourne_min":25.0,"lga_distance_to_melbourne_km":31.0,"gps_per_1000_pop":0.9,"pharms_per_1000_pop":0.1},{"property_id":"P002","address":"Point Cook VIC 3030","suburb":"Point Cook","price":850000,"bedrooms":4,"bathrooms":2,"car_spaces":2,"property_type":"house","lat":-37.887,"lon":144.735,"lga":"Wyndham (C)","notes":"family house near town centre","nearest_train_km":2.2,"nearest_train":"Williams Landing Railway Station (Williams Landing)","nearest_bus_km":0.23,"nearest_bus":"Point Cook Sec Col/Boardwalk Bvd (Point Cook)","nearest_tram_km":17.3,"nearest_tram":"58-Ballarat Rd/Gordon St (Footscray)","nearest_school_km":0.19,"nearest_school":"Point Cook Senior Secondary College","nearest_health_km":3.24,"nearest_health":"Mercy Public Hospital Inc.[Werribee]","nearest_sport_km":0.33,"nearest_sport":"Aerobics","nearest_retail_km":0.26,"nearest_retail":"Point Cook Town Centre","stops_400m":6,"stops_800m":19,"stops_2km":77,"mode_diversity_2km":1,"schools_5km":28,"health_5km":1,"sport_2km":21,"retail_2km":1,"target_distances":[{"target":"Melbourne CBD","km":21.63},{"target":"Deakin Burwood","km":33.63},{"target":"University of Melbourne","km":22.15},{"target":"Melbourne Airport","km":25.97}],"weighted_target_km":25.17,"transport_score":71.4,"amenity_score":92.1,"commute_score":51.0,"overall_score":72.5,"lga_travel_time_to_melbourne_min":25.0,"lga_distance_to_melbourne_km":31.0,"gps_per_1000_pop":0.9,"pharms_per_1000_pop":0.1},{"property_id":"P003","address":"Burwood VIC 3125","suburb":"Burwood","price":940000,"bedrooms":3,"bathrooms":2,"car_spaces":1,"property_type":"townhouse","lat":-37.849,"lon":145.112,"lga":"Whitehorse (C)","notes":"close to Deakin Burwood and tram 75","nearest_train_km":2.74,"nearest_train":"Jordanville Railway Station (Mount Waverley)","nearest_bus_km":0.25,"nearest_bus":"Burwood Hwy/Elgar Rd (Burwood)","nearest_tram_km":0.29,"nearest_tram":"62-Elgar Rd/Burwood Hwy (Burwood)","nearest_school_km":0.44,"nearest_school":"Presbyterian Ladies' College","nearest_health_km":3.88,"nearest_health":"Eastern Health","nearest_sport_km":0.07,"nearest_sport":"Australian Rules Football","nearest_retail_km":0.87,"nearest_retail":"Burwood Brickworks Shopping Centre","stops_400m":11,"stops_800m":27,"stops_2km":165,"mode_diversity_2km":2,"schools_5km":60,"health_5km":3,"sport_2km":32,"retail_2km":1,"target_distances":[{"target":"Melbourne CBD","km":13.66},{"target":"Deakin Burwood","km":0.3},{"target":"University of Melbourne","km":14.42},{"target":"Melbourne Airport","km":31.12}],"weighted_target_km":12.22,"transport_score":72.9,"amenity_score":93.8,"commute_score":90.2,"overall_score":85.4,"lga_travel_time_to_melbourne_min":22.0,"lga_distance_to_melbourne_km":26.0,"gps_per_1000_pop":1.2,"pharms_per_1000_pop":0.2},{"property_id":"P004","address":"Box Hill VIC 3128","suburb":"Box Hill","price":780000,"bedrooms":2,"bathrooms":2,"car_spaces":1,"property_type":"apartment","lat":-37.819,"lon":145.122,"lga":"Whitehorse (C)","notes":"activity centre and multimodal hub","nearest_train_km":0.06,"nearest_train":"Box Hill Railway Station (Box Hill)","nearest_bus_km":0.04,"nearest_bus":"Box Hill Bus Station/Station St (Box Hill)","nearest_tram_km":0.13,"nearest_tram":"58-Box Hill Central/Whitehorse Rd (Box Hill)","nearest_school_km":0.7,"nearest_school":"Our Lady of Sion College","nearest_health_km":0.59,"nearest_health":"Eastern Health","nearest_sport_km":0.14,"nearest_sport":"Fitness / Gymnasium Workouts","nearest_retail_km":0.03,"nearest_retail":"Box Hill Central","stops_400m":26,"stops_800m":63,"stops_2km":215,"mode_diversity_2km":3,"schools_5km":64,"health_5km":2,"sport_2km":50,"retail_2km":1,"target_distances":[{"target":"Melbourne CBD","km":13.97},{"target":"Deakin Burwood","km":3.24},{"target":"University of Melbourne","km":14.34},{"target":"Melbourne Airport","km":29.81}],"weighted_target_km":12.95,"transport_score":100.0,"amenity_score":100.0,"commute_score":88.0,"overall_score":96.4,"lga_travel_time_to_melbourne_min":22.0,"lga_distance_to_melbourne_km":26.0,"gps_per_1000_pop":1.2,"pharms_per_1000_pop":0.2},{"property_id":"P005","address":"Footscray VIC 3011","suburb":"Footscray","price":760000,"bedrooms":2,"bathrooms":1,"car_spaces":1,"property_type":"apartment","lat":-37.801,"lon":144.899,"lga":"Maribyrnong (C)","notes":"inner west rail and market access","nearest_train_km":0.37,"nearest_train":"Footscray Railway Station (Footscray)","nearest_bus_km":0.03,"nearest_bus":"Footscray Plaza SC/Paisley St (Footscray)","nearest_tram_km":0.14,"nearest_tram":"62-Nicholson St/Hopkins St (Footscray)","nearest_school_km":0.42,"nearest_school":"Gilmore College For Girls","nearest_health_km":1.1,"nearest_health":"Tweddle Child & Family Health Centre [Footscray]","nearest_sport_km":0.41,"nearest_sport":"Badminton","nearest_retail_km":0.09,"nearest_retail":"Footscray Market","stops_400m":35,"stops_800m":70,"stops_2km":199,"mode_diversity_2km":3,"schools_5km":50,"health_5km":6,"sport_2km":41,"retail_2km":1,"target_distances":[{"target":"Melbourne CBD","km":5.8},{"target":"Deakin Burwood","km":19.66},{"target":"University of Melbourne","km":5.45},{"target":"Melbourne Airport","km":15.54}],"weighted_target_km":10.17,"transport_score":100.0,"amenity_score":100.0,"commute_score":96.5,"overall_score":99.0,"lga_travel_time_to_melbourne_min":10.0,"lga_distance_to_melbourne_km":9.0,"gps_per_1000_pop":1.2,"pharms_per_1000_pop":0.4},{"property_id":"P006","address":"Coburg VIC 3058","suburb":"Coburg","price":920000,"bedrooms":3,"bathrooms":1,"car_spaces":1,"property_type":"house","lat":-37.742,"lon":144.964,"lga":"Moreland (C)","notes":"north-side tram and train access","nearest_train_km":0.07,"nearest_train":"Coburg Railway Station (Coburg)","nearest_bus_km":0.1,"nearest_bus":"Coburg Station/Bell St (Coburg)","nearest_tram_km":0.23,"nearest_tram":"34-Bell St/Sydney Rd (Coburg)","nearest_school_km":0.38,"nearest_school":"Coburg Primary School","nearest_health_km":4.37,"nearest_health":"Royal Melbourne Hospital- Royal Park Campus","nearest_sport_km":0.21,"nearest_sport":"Aerobics","nearest_retail_km":0.14,"nearest_retail":"Coburg Market","stops_400m":23,"stops_800m":50,"stops_2km":233,"mode_diversity_2km":3,"schools_5km":74,"health_5km":1,"sport_2km":39,"retail_2km":1,"target_distances":[{"target":"Melbourne CBD","km":7.96},{"target":"Deakin Burwood","km":17.71},{"target":"University of Melbourne","km":6.27},{"target":"Melbourne Airport","km":13.53}],"weighted_target_km":10.62,"transport_score":100.0,"amenity_score":94.1,"commute_score":95.1,"overall_score":96.5,"lga_travel_time_to_melbourne_min":10.0,"lga_distance_to_melbourne_km":8.0,"gps_per_1000_pop":1.1,"pharms_per_1000_pop":0.3},{"property_id":"P007","address":"Glen Waverley VIC 3150","suburb":"Glen Waverley","price":1180000,"bedrooms":4,"bathrooms":2,"car_spaces":2,"property_type":"house","lat":-37.879,"lon":145.164,"lga":"Monash (C)","notes":"school and retail centre context","nearest_train_km":0.18,"nearest_train":"Glen Waverley Railway Station (Glen Waverley)","nearest_bus_km":0.1,"nearest_bus":"Glen Waverley Station/Railway Pde (Glen Waverley)","nearest_tram_km":2.72,"nearest_tram":"73-Springvale Rd/Burwood Hwy (Burwood East)","nearest_school_km":0.19,"nearest_school":"Glen Waverley Secondary College","nearest_health_km":2.93,"nearest_health":"Peter James Centre The (East Burwood)","nearest_sport_km":1.06,"nearest_sport":"Cricket","nearest_retail_km":0.38,"nearest_retail":"The Glen Shopping Centre","stops_400m":16,"stops_800m":30,"stops_2km":152,"mode_diversity_2km":2,"schools_5km":50,"health_5km":1,"sport_2km":23,"retail_2km":1,"target_distances":[{"target":"Melbourne CBD","km":19.08},{"target":"Deakin Burwood","km":5.55},{"target":"University of Melbourne","km":19.97},{"target":"Melbourne Airport","km":36.76}],"weighted_target_km":17.64,"transport_score":93.3,"amenity_score":97.7,"commute_score":73.8,"overall_score":89.0,"lga_travel_time_to_melbourne_min":22.0,"lga_distance_to_melbourne_km":23.0,"gps_per_1000_pop":1.3,"pharms_per_1000_pop":0.3},{"property_id":"P008","address":"Berwick VIC 3806","suburb":"Berwick","price":910000,"bedrooms":4,"bathrooms":2,"car_spaces":2,"property_type":"house","lat":-38.034,"lon":145.345,"lga":"Casey (C)","notes":"outer south-east family option","nearest_train_km":0.72,"nearest_train":"Berwick Railway Station (Berwick)","nearest_bus_km":0.09,"nearest_bus":"Langmore Lane/Gloucester Ave (Berwick)","nearest_tram_km":24.38,"nearest_tram":"75-Vermont South Shopping Centre/Burwood Hwy (Vermont South)","nearest_school_km":0.2,"nearest_school":"St Margaret's School","nearest_health_km":1.25,"nearest_health":"Casey Hospital","nearest_sport_km":0.21,"nearest_sport":"Fitness / Gymnasium Workouts","nearest_retail_km":3.46,"nearest_retail":"Eden Rise Village","stops_400m":12,"stops_800m":32,"stops_2km":102,"mode_diversity_2km":2,"schools_5km":22,"health_5km":1,"sport_2km":26,"retail_2km":0,"target_distances":[{"target":"Melbourne CBD","km":41.51},{"target":"Deakin Burwood","km":28.93},{"target":"University of Melbourne","km":42.69},{"target":"Melbourne Airport","km":60.04}],"weighted_target_km":40.45,"transport_score":92.2,"amenity_score":67.4,"commute_score":4.7,"overall_score":57.3,"lga_travel_time_to_melbourne_min":36.0,"lga_distance_to_melbourne_km":46.0,"gps_per_1000_pop":0.9,"pharms_per_1000_pop":0.2}],"targets":[{"target_name":"Melbourne CBD","category":"work","lat":-37.8136,"lon":144.9631,"weight":0.45},{"target_name":"Deakin Burwood","category":"campus","lat":-37.8476,"lon":145.1149,"weight":0.25},{"target_name":"University of Melbourne","category":"campus","lat":-37.7983,"lon":144.9609,"weight":0.2},{"target_name":"Melbourne Airport","category":"airport","lat":-37.669,"lon":144.841,"weight":0.1}],"features":[{"name":"Berwick Railway Station (Berwick)","category":"train","lat":-38.040408,"lon":145.345726,"routes":"Pakenham"},{"name":"Beaconsfield Railway Station (Beaconsfield)","category":"train","lat":-38.050831,"lon":145.366074,"routes":"Pakenham"},{"name":"Burwood Railway Station (Glen Iris)","category":"train","lat":-37.851563,"lon":145.080511,"routes":"Alamein"},{"name":"Jordanville Railway Station (Mount Waverley)","category":"train","lat":-37.873603,"lon":145.11209,"routes":"Glen Waverley"},{"name":"Syndal Railway Station (Glen Waverley)","category":"train","lat":-37.87623,"lon":145.14978,"routes":"Glen Waverley"},{"name":"Glen Waverley Railway Station (Glen Waverley)","category":"train","lat":-37.879504,"lon":145.162058,"routes":"Glen Waverley"},{"name":"Brunswick Railway Station (Brunswick)","category":"train","lat":-37.767721,"lon":144.959587,"routes":"Upfield"},{"name":"Kensington Railway Station (Kensington)","category":"train","lat":-37.79378,"lon":144.930524,"routes":"Craigieburn"},{"name":"South Kensington Railway Station (Kensington)","category":"train","lat":-37.799531,"lon":144.925469,"routes":"Williamstown,Werribee"},{"name":"Footscray Railway Station (Footscray)","category":"train","lat":-37.801083,"lon":144.903199,"routes":"Werribee,Williamstown,Sunbury"},{"name":"West Footscray Railway Station (West Footscray)","category":"train","lat":-37.801803,"lon":144.883985,"routes":"Sunbury"},{"name":"Middle Footscray Railway Station (Footscray)","category":"train","lat":-37.802505,"lon":144.891472,"routes":"Sunbury"},{"name":"Seddon Railway Station (Seddon)","category":"train","lat":-37.809005,"lon":144.895672,"routes":"Williamstown,Werribee"},{"name":"Yarraville Railway Station (Yarraville)","category":"train","lat":-37.81585,"lon":144.889934,"routes":"Williamstown,Werribee"},{"name":"Williams Landing Railway Station (Williams Landing)","category":"train","lat":-37.869865,"lon":144.747445,"routes":"Werribee"},{"name":"Werribee Railway Station (Werribee)","category":"train","lat":-37.899378,"lon":144.661118,"routes":"Werribee"},{"name":"Box Hill Railway Station (Box Hill)","category":"train","lat":-37.819222,"lon":145.121429,"routes":"Lilydale,Belgrave"},{"name":"Mont Albert Railway Station (Mont Albert)","category":"train","lat":-37.819427,"lon":145.10553,"routes":"Lilydale,Belgrave"},{"name":"Blackburn Railway Station (Blackburn)","category":"train","lat":-37.820071,"lon":145.150014,"routes":"Lilydale,Belgrave"},{"name":"Laburnum Railway Station (Blackburn)","category":"train","lat":-37.82078,"lon":145.140703,"routes":"Lilydale,Belgrave"},{"name":"Surrey Hills Railway Station (Surrey Hills)","category":"train","lat":-37.824148,"lon":145.098775,"routes":"Lilydale,Belgrave"},{"name":"Chatham Railway Station (Surrey Hills)","category":"train","lat":-37.8243,"lon":145.088648,"routes":"Lilydale,Belgrave"},{"name":"Merlynston Railway Station (Coburg North)","category":"train","lat":-37.720934,"lon":144.961314,"routes":"Upfield"},{"name":"Batman Railway Station (Coburg North)","category":"train","lat":-37.733523,"lon":144.962841,"routes":"Upfield"},{"name":"Coburg Railway Station (Coburg)","category":"train","lat":-37.742345,"lon":144.963336,"routes":"Upfield"},{"name":"Moreland Railway Station (Coburg)","category":"train","lat":-37.754485,"lon":144.961823,"routes":"Upfield"},{"name":"Anstey Railway Station (Brunswick)","category":"train","lat":-37.761242,"lon":144.960684,"routes":"Upfield"},{"name":"57-Queens Pde/Toorak Rd (Camberwell)","category":"tram","lat":-37.850158,"lon":145.092731,"routes":"75"},{"name":"57-Glendale St/Riversdale Rd (Surrey Hills)","category":"tram","lat":-37.836204,"lon":145.100306,"routes":"70"},{"name":"58-Wattle Park/Riversdale Rd (Surrey Hills)","category":"tram","lat":-37.836531,"lon":145.102184,"routes":"70"},{"name":"58-Wattle Park/1013 Riversdale Rd (Surrey Hills)","category":"tram","lat":-37.836755,"lon":145.10261,"routes":"70"},{"name":"58-Warrigal Rd/Burwood Hwy (Camberwell)","category":"tram","lat":-37.850328,"lon":145.095466,"routes":"75"},{"name":"58-Warrigal Rd/Burwood Hwy (Burwood)","category":"tram","lat":-37.850433,"lon":145.095838,"routes":"75"},{"name":"56-Elgar Rd/Whitehorse Rd (Box Hill)","category":"tram","lat":-37.816884,"lon":145.114434,"routes":"109"},{"name":"59-Alandale St/Riversdale Rd (Surrey Hills)","category":"tram","lat":-37.836859,"lon":145.104641,"routes":"70"},{"name":"56-Elgar Rd/Whitehorse Rd (Box Hill)","category":"tram","lat":-37.816911,"lon":145.115592,"routes":"109"},{"name":"59-Alandale St/Riversdale Rd (Surrey Hills)","category":"tram","lat":-37.836997,"lon":145.104808,"routes":"70"},{"name":"59-Gilmour St/Burwood Hwy (Burwood)","category":"tram","lat":-37.850742,"lon":145.09874,"routes":"75"},{"name":"59-Somers St/Burwood Hwy (Burwood)","category":"tram","lat":-37.8507,"lon":145.098979,"routes":"75"},{"name":"60-Ferndale St/Riversdale Rd (Surrey Hills)","category":"tram","lat":-37.83709,"lon":145.106658,"routes":"70"},{"name":"60-Ferndale St/Riversdale Rd (Surrey Hills)","category":"tram","lat":-37.837208,"lon":145.106689,"routes":"70"},{"name":"57-Nelson Rd/Whitehorse Rd (Box Hill)","category":"tram","lat":-37.817421,"lon":145.118714,"routes":"109"},{"name":"57-Nelson Rd/Whitehorse Rd (Box Hill)","category":"tram","lat":-37.817457,"lon":145.119861,"routes":"109"},{"name":"60-Roslyn St/Burwood Hwy (Burwood)","category":"tram","lat":-37.850444,"lon":145.102089,"routes":"75"},{"name":"60-Millicent St/Burwood Hwy (Burwood)","category":"tram","lat":-37.850508,"lon":145.102155,"routes":"75"},{"name":"61-Elgar Rd/Riversdale Rd (Surrey Hills)","category":"tram","lat":-37.837609,"lon":145.110372,"routes":"70"},{"name":"58-Box Hill Central/Whitehorse Rd (Box Hill)","category":"tram","lat":-37.817876,"lon":145.122349,"routes":"109"},{"name":"61-Presbyterian Ladies College/Burwood Hwy (Burwood)","category":"tram","lat":-37.849967,"lon":145.105476,"routes":"75"},{"name":"61-Presbyterian Ladies College/Burwood Hwy (Burwood)","category":"tram","lat":-37.84998,"lon":145.105715,"routes":"75"},{"name":"62-Elgar Rd/Burwood Hwy (Burwood)","category":"tram","lat":-37.849591,"lon":145.108441,"routes":"75"},{"name":"62-Elgar Rd/Burwood Hwy (Burwood)","category":"tram","lat":-37.849505,"lon":145.108704,"routes":"75"},{"name":"63-Deakin University/Burwood Hwy (Burwood)","category":"tram","lat":-37.849989,"lon":145.115238,"routes":"75"},{"name":"63-Deakin University/Burwood Hwy (Burwood)","category":"tram","lat":-37.850081,"lon":145.115407,"routes":"75"},{"name":"64-Station St/Burwood Hwy (Burwood)","category":"tram","lat":-37.850551,"lon":145.119395,"routes":"75"},{"name":"64-Station St/Burwood Hwy (Burwood)","category":"tram","lat":-37.850606,"lon":145.120587,"routes":"75"},{"name":"65-Starling St/Burwood Hwy (Burwood)","category":"tram","lat":-37.85126,"lon":145.125981,"routes":"75"},{"name":"65-Starling St/Burwood Hwy (Burwood)","category":"tram","lat":-37.851364,"lon":145.126319,"routes":"75"},{"name":"66-Middleborough Rd/Burwood Hwy (Burwood)","category":"tram","lat":-37.85202,"lon":145.131837,"routes":"75"},{"name":"66-Middleborough Rd/Burwood Hwy (Burwood)","category":"tram","lat":-37.852023,"lon":145.133212,"routes":"75"},{"name":"67-Old Burwood Rd/Burwood Hwy (Burwood East)","category":"tram","lat":-37.851479,"lon":145.138136,"routes":"75"},{"name":"67-Old Burwood Rd/Burwood Hwy (Burwood East)","category":"tram","lat":-37.851482,"lon":145.138295,"routes":"75"},{"name":"68-Benwerrin Reserve/Burwood Hwy (Burwood East)","category":"tram","lat":-37.851286,"lon":145.14188,"routes":"75"},{"name":"68-Benwerrin Reserve/Burwood Hwy (Burwood East)","category":"tram","lat":-37.851379,"lon":145.142037,"routes":"75"},{"name":"71-Sevenoaks Rd/Burwood Hwy (Burwood East)","category":"tram","lat":-37.853621,"lon":145.158541,"routes":"75"},{"name":"71-Sevenoaks Rd/Burwood Hwy (Burwood East)","category":"tram","lat":-37.853592,"lon":145.158985,"routes":"75"},{"name":"72-Lakeside Dr/Burwood Hwy (Burwood East)","category":"tram","lat":-37.854365,"lon":145.164637,"routes":"75"},{"name":"72-Lakeside Dr/Burwood Hwy (Burwood East)","category":"tram","lat":-37.854414,"lon":145.166068,"routes":"75"},{"name":"73-Springvale Rd/Burwood Hwy (Burwood East)","category":"tram","lat":-37.854763,"lon":145.168196,"routes":"75"},{"name":"73-Springvale Rd/Burwood Hwy (Vermont South)","category":"tram","lat":-37.854938,"lon":145.170158,"routes":"75"},{"name":"74-Stanley Rd/Burwood Hwy (Vermont South)","category":"tram","lat":-37.855556,"lon":145.174598,"routes":"75"},{"name":"74-Stanley Rd/Burwood Hwy (Vermont South)","category":"tram","lat":-37.855544,"lon":145.174974,"routes":"75"},{"name":"75-Vermont South Shopping Centre/Burwood Hwy (Vermont South)","category":"tram","lat":-37.856445,"lon":145.18193,"routes":"75"},{"name":"50-Wharton St/Whitehorse Rd (Surrey Hills)","category":"tram","lat":-37.814106,"lon":145.091376,"routes":"109"},{"name":"50-Wharton St/Whitehorse Rd (Surrey Hills)","category":"tram","lat":-37.81403,"lon":145.091685,"routes":"109"},{"name":"51-Narrak Rd/Whitehorse Rd (Balwyn)","category":"tram","lat":-37.814405,"lon":145.094787,"routes":"109"},{"name":"51-Narrak Rd/Whitehorse Rd (Mont Albert)","category":"tram","lat":-37.814564,"lon":145.09517,"routes":"109"},{"name":"51-Highfield Rd/Riversdale Rd (Canterbury)","category":"tram","lat":-37.834367,"lon":145.084854,"routes":"70"},{"name":"51-Highfield Rd/Riversdale Rd (Camberwell)","category":"tram","lat":-37.834534,"lon":145.085145,"routes":"70"},{"name":"52-Lockhart St/Riversdale Rd (Camberwell)","category":"tram","lat":-37.834754,"lon":145.08814,"routes":"70"},{"name":"53-Union Rd/Whitehorse Rd (Balwyn)","category":"tram","lat":-37.814946,"lon":145.099249,"routes":"109"},{"name":"52-Lockhart St/Riversdale Rd (Camberwell)","category":"tram","lat":-37.834923,"lon":145.088533,"routes":"70"},{"name":"53-Union Rd/Whitehorse Rd (Surrey Hills)","category":"tram","lat":-37.815112,"lon":145.099518,"routes":"109"},{"name":"53-Highfield Rd/Toorak Rd (Camberwell)","category":"tram","lat":-37.848737,"lon":145.081812,"routes":"75"},{"name":"53-Lithgow St/Toorak Rd (Camberwell)","category":"tram","lat":-37.848916,"lon":145.082296,"routes":"75"},{"name":"53-Essex Rd/Riversdale Rd (Surrey Hills)","category":"tram","lat":-37.835088,"lon":145.090949,"routes":"70"},{"name":"53-Essex Rd/Riversdale Rd (Camberwell)","category":"tram","lat":-37.835215,"lon":145.090968,"routes":"70"},{"name":"54-Oberwyl Rd/Toorak Rd (Camberwell)","category":"tram","lat":-37.849039,"lon":145.084304,"routes":"75"},{"name":"54-Inglisby Rd/Whitehorse Rd (Mont Albert)","category":"tram","lat":-37.81548,"lon":145.102757,"routes":"109"},{"name":"54-Grandview Ave/Toorak Rd (Camberwell)","category":"tram","lat":-37.849197,"lon":145.084596,"routes":"75"},{"name":"54-Inglisby Rd/Whitehorse Rd (Mont Albert)","category":"tram","lat":-37.815405,"lon":145.103123,"routes":"109"},{"name":"54-Through Rd/Riversdale Rd (Surrey Hills)","category":"tram","lat":-37.835341,"lon":145.093192,"routes":"70"},{"name":"54-Through Rd/Riversdale Rd (Camberwell)","category":"tram","lat":-37.835531,"lon":145.093801,"routes":"70"},{"name":"55-Through Rd/Toorak Rd (Camberwell)","category":"tram","lat":-37.849321,"lon":145.086718,"routes":"75"},{"name":"55-Beryl St/Toorak Rd (Camberwell)","category":"tram","lat":-37.849519,"lon":145.087258,"routes":"75"},{"name":"55-Union Rd/Riversdale Rd (Surrey Hills)","category":"tram","lat":-37.835575,"lon":145.095402,"routes":"70"},{"name":"55-Union Rd/Riversdale Rd (Canterbury)","category":"tram","lat":-37.835762,"lon":145.095818,"routes":"70"},{"name":"56-Barkly St/Toorak Rd (Camberwell)","category":"tram","lat":-37.849656,"lon":145.089596,"routes":"75"},{"name":"56-Alfred Rd/Toorak Rd (Camberwell)","category":"tram","lat":-37.849853,"lon":145.090057,"routes":"75"},{"name":"56-Warrigal Rd/Riversdale Rd (Surrey Hills)","category":"tram","lat":-37.835897,"lon":145.098053,"routes":"70"},{"name":"56-Warrigal Rd/Riversdale Rd (Surrey Hills)","category":"tram","lat":-37.836065,"lon":145.098389,"routes":"70"},{"name":"55-Hood St/Whitehorse Rd (Mont Albert)","category":"tram","lat":-37.816164,"lon":145.109453,"routes":"109"},{"name":"55-Hood St/Whitehorse Rd (Mont Albert)","category":"tram","lat":-37.816341,"lon":145.109824,"routes":"109"},{"name":"57-Fairview Ave/Toorak Rd (Camberwell)","category":"tram","lat":-37.849981,"lon":145.092361,"routes":"75"},{"name":"57-Glendale St/Riversdale Rd (Surrey Hills)","category":"tram","lat":-37.836271,"lon":145.10002,"routes":"70"},{"name":"47-West Preston/Gilbert Rd (Preston)","category":"tram","lat":-37.729186,"lon":144.991587,"routes":"11"},{"name":"39-Mercy College/Sydney Rd (Coburg North)","category":"tram","lat":-37.730439,"lon":144.963753,"routes":"19"},{"name":"135-Bell St/Nicholson St (Coburg)","category":"tram","lat":-37.742861,"lon":144.978132,"routes":"1"},{"name":"39-Mercy College/Sydney Rd (Coburg North)","category":"tram","lat":-37.729891,"lon":144.963859,"routes":"19"},{"name":"37-Miller St/Gilbert Rd (Preston)","category":"tram","lat":-37.750602,"lon":144.988125,"routes":"11"},{"name":"37-Miller St/Gilbert Rd (Preston)","category":"tram","lat":-37.750312,"lon":144.988042,"routes":"11"},{"name":"40-North Coburg Terminus/Sydney Rd (Coburg North)","category":"tram","lat":-37.72758,"lon":144.96365,"routes":"19"},{"name":"36-Devon St/Miller St (Preston)","category":"tram","lat":-37.751263,"lon":144.990944,"routes":"11"},{"name":"36-Bracken Ave/Miller St (Thornbury)","category":"tram","lat":-37.751441,"lon":144.991314,"routes":"11"},{"name":"38-Oakover Rd/Gilbert Rd (Preston)","category":"tram","lat":-37.748083,"lon":144.988375,"routes":"11"},{"name":"38-Oakover Rd/Gilbert Rd (Preston)","category":"tram","lat":-37.74823,"lon":144.988541,"routes":"11"},{"name":"34-Miller St/St Georges Rd (Preston)","category":"tram","lat":-37.752268,"lon":144.994924,"routes":"11"},{"name":"34-Miller St/St Georges Rd (Preston)","category":"tram","lat":-37.752033,"lon":144.994885,"routes":"11"},{"name":"35-St Georges Rd/Miller St (Preston)","category":"tram","lat":-37.751644,"lon":144.994793,"routes":"11"},{"name":"39-Latona Ave/Gilbert Rd (Preston)","category":"tram","lat":-37.745639,"lon":144.988804,"routes":"11"},{"name":"39-Latona Ave/Gilbert Rd (Preston)","category":"tram","lat":-37.745624,"lon":144.988963,"routes":"11"},{"name":"40-Bell St/Gilbert Rd (Preston)","category":"tram","lat":-37.744075,"lon":144.989028,"routes":"11"},{"name":"40-Bell St/Gilbert Rd (Preston)","category":"tram","lat":-37.743538,"lon":144.989247,"routes":"11"},{"name":"41-Bruce St/Gilbert Rd (Preston)","category":"tram","lat":-37.741316,"lon":144.9895,"routes":"11"},{"name":"41-Bruce St/Gilbert Rd (Preston)","category":"tram","lat":-37.74096,"lon":144.989714,"routes":"11"},{"name":"42-Cramer St/Gilbert Rd (Preston)","category":"tram","lat":-37.739096,"lon":144.989832,"routes":"11"},{"name":"42-Cramer St/Gilbert Rd (Preston)","category":"tram","lat":-37.73891,"lon":144.99003,"routes":"11"},{"name":"43-Murray Rd/Gilbert Rd (Preston)","category":"tram","lat":-37.736715,"lon":144.990214,"routes":"11"},{"name":"43-Murray Rd/Gilbert Rd (Preston)","category":"tram","lat":-37.736466,"lon":144.990414,"routes":"11"},{"name":"44-Cooper St/Gilbert Rd (Preston)","category":"tram","lat":-37.73454,"lon":144.990591,"routes":"11"},{"name":"44-Cooper St/Gilbert Rd (Preston)","category":"tram","lat":-37.734606,"lon":144.990737,"routes":"11"},{"name":"45-Jacka St/Gilbert Rd (Preston)","category":"tram","lat":-37.732994,"lon":144.990848,"routes":"11"},{"name":"45-Jacka St/Gilbert Rd (Preston)","category":"tram","lat":-37.732764,"lon":144.991059,"routes":"11"},{"name":"46-McNamara St/Gilbert Rd (Preston)","category":"tram","lat":-37.730056,"lon":144.991359,"routes":"11"},{"name":"38-Renown St/Sydney Rd (Coburg)","category":"tram","lat":-37.731619,"lon":144.964266,"routes":"19"},{"name":"38-Carr St/Sydney Rd (Coburg North)","category":"tram","lat":-37.732112,"lon":144.964627,"routes":"19"},{"name":"37-Gaffney St/Sydney Rd (Coburg North)","category":"tram","lat":-37.733856,"lon":144.965407,"routes":"19"},{"name":"37-Gaffney St/Sydney Rd (Coburg)","category":"tram","lat":-37.734097,"lon":144.965321,"routes":"19"},{"name":"36-Rogers St/Sydney Rd (Coburg)","category":"tram","lat":-37.735534,"lon":144.966076,"routes":"19"},{"name":"36-Rogers St/Sydney Rd (Coburg)","category":"tram","lat":-37.73584,"lon":144.966056,"routes":"19"},{"name":"35-St Pauls Catholic Church/Sydney Rd (Coburg)","category":"tram","lat":-37.737505,"lon":144.96693,"routes":"19"},{"name":"34-Bell St/Sydney Rd (Coburg)","category":"tram","lat":-37.741159,"lon":144.96666,"routes":"19"},{"name":"34-Bell St/Sydney Rd (Coburg)","category":"tram","lat":-37.741471,"lon":144.96647,"routes":"19"},{"name":"33-Coburg Market/Sydney Rd (Coburg)","category":"tram","lat":-37.743136,"lon":144.966356,"routes":"19"},{"name":"33-Coburg Market/Sydney Rd (Coburg)","category":"tram","lat":-37.743259,"lon":144.966148,"routes":"19"},{"name":"134-Merribell Ave/Nicholson St (Coburg)","category":"tram","lat":-37.744359,"lon":144.977728,"routes":"1"},{"name":"134-Merribell Ave/Nicholson St (Coburg)","category":"tram","lat":-37.744371,"lon":144.977887,"routes":"1"},{"name":"32-Harding St/Sydney Rd (Coburg)","category":"tram","lat":-37.744888,"lon":144.966058,"routes":"19"},{"name":"32-Munro St/Sydney Rd (Coburg)","category":"tram","lat":-37.745065,"lon":144.965838,"routes":"19"},{"name":"133-Harding St/Nicholson St (Coburg)","category":"tram","lat":-37.746059,"lon":144.977523,"routes":"1"},{"name":"133-Harding St/Nicholson St (Coburg)","category":"tram","lat":-37.746371,"lon":144.97731,"routes":"1"},{"name":"31-Edward St/Sydney Rd (Coburg)","category":"tram","lat":-37.748474,"lon":144.96545,"routes":"19"},{"name":"31-Reynard St/Sydney Rd (Coburg)","category":"tram","lat":-37.74874,"lon":144.965204,"routes":"19"},{"name":"132-Crozier St/Nicholson St (Coburg)","category":"tram","lat":-37.749393,"lon":144.97699,"routes":"1"},{"name":"132-Crozier St/Nicholson St (Coburg)","category":"tram","lat":-37.749418,"lon":144.976841,"routes":"1"},{"name":"131-Rennie St/Nicholson St (Coburg)","category":"tram","lat":-37.751217,"lon":144.976679,"routes":"1"},{"name":"131-Rennie St/Nicholson St (Coburg)","category":"tram","lat":-37.75134,"lon":144.976505,"routes":"1"},{"name":"30-The Avenue/Sydney Rd (Coburg)","category":"tram","lat":-37.751861,"lon":144.964846,"routes":"19"},{"name":"30-The Avenue/Sydney Rd (Coburg)","category":"tram","lat":-37.752073,"lon":144.964636,"routes":"19"},{"name":"130-The Avenue/Nicholson St (Coburg)","category":"tram","lat":-37.753372,"lon":144.976189,"routes":"1"},{"name":"29-Moore St/Sydney Rd (Coburg)","category":"tram","lat":-37.753502,"lon":144.964415,"routes":"19"},{"name":"29-Moore St/Sydney Rd (Coburg)","category":"tram","lat":-37.753505,"lon":144.964551,"routes":"19"},{"name":"130-The Avenue/Nicholson St (Coburg)","category":"tram","lat":-37.753566,"lon":144.975945,"routes":"1"},{"name":"133-Moreland Station/Moreland Rd (Coburg)","category":"tram","lat":-37.75526,"lon":144.962381,"routes":"6"},{"name":"133-Moreland Station/Cameron St (Coburg)","category":"tram","lat":-37.755292,"lon":144.962119,"routes":"6"},{"name":"28-Moreland Rd/Sydney Rd (Coburg)","category":"tram","lat":-37.755311,"lon":144.964252,"routes":"19"},{"name":"132-Sydney Rd/Moreland Rd (Coburg)","category":"tram","lat":-37.75534,"lon":144.963854,"routes":"6"},{"name":"132-Sydney Rd/Moreland Rd (Coburg)","category":"tram","lat":-37.755564,"lon":144.964279,"routes":"6"},{"name":"28-Moreland Rd/Sydney Rd (Brunswick)","category":"tram","lat":-37.75564,"lon":144.964016,"routes":"19"},{"name":"131-De Carle St/Moreland Rd (Coburg)","category":"tram","lat":-37.755663,"lon":144.966354,"routes":"6"},{"name":"131-De Carle St/Moreland Rd (Coburg)","category":"tram","lat":-37.75581,"lon":144.96652,"routes":"6"},{"name":"130-Barrow St/Moreland Rd (Coburg)","category":"tram","lat":-37.756058,"lon":144.969975,"routes":"6"},{"name":"130-Barrow St/Moreland Rd (Coburg)","category":"tram","lat":-37.756206,"lon":144.970153,"routes":"6"},{"name":"129-Moreland Rd/Nicholson St (Coburg)","category":"tram","lat":-37.756541,"lon":144.974979,"routes":"1"},{"name":"129-Moreland Rd/Holmes St (Brunswick)","category":"tram","lat":-37.756571,"lon":144.974626,"routes":"6"},{"name":"129-Moreland Rd/Holmes St (Brunswick)","category":"tram","lat":-37.75688,"lon":144.974754,"routes":"6,1"},{"name":"27-Brunswick Tram Depot/Sydney Rd (Brunswick)","category":"tram","lat":-37.757422,"lon":144.963876,"routes":"19"},{"name":"27-Brunswick Tram Depot/Sydney Rd (Brunswick)","category":"tram","lat":-37.757815,"lon":144.963639,"routes":"19"},{"name":"128-Mitchell St/Holmes St (Brunswick East)","category":"tram","lat":-37.759264,"lon":144.974519,"routes":"6,1"},{"name":"128-Mitchell St/Holmes St (Brunswick East)","category":"tram","lat":-37.759387,"lon":144.974334,"routes":"6,1"},{"name":"26-Albion St/Sydney Rd (Brunswick)","category":"tram","lat":-37.760738,"lon":144.963309,"routes":"19"},{"name":"26-Albion St/Sydney Rd (Brunswick)","category":"tram","lat":-37.760959,"lon":144.963087,"routes":"19"},{"name":"25-Stewart St/Sydney Rd (Brunswick)","category":"tram","lat":-37.763232,"lon":144.962695,"routes":"19"},{"name":"25-Stewart St/Sydney Rd (Brunswick)","category":"tram","lat":-37.763083,"lon":144.962904,"routes":"19"},{"name":"24-Brunswick Baptist Church/Sydney Rd (Brunswick)","category":"tram","lat":-37.765578,"lon":144.962302,"routes":"19"},{"name":"24-Blyth St/Sydney Rd (Brunswick)","category":"tram","lat":-37.765356,"lon":144.962512,"routes":"19"},{"name":"23-Victoria St/Sydney Rd (Brunswick)","category":"tram","lat":-37.767141,"lon":144.962032,"routes":"19"},{"name":"23-Victoria St/Sydney Rd (Brunswick)","category":"tram","lat":-37.766982,"lon":144.962229,"routes":"19"},{"name":"22-Albert St/Sydney Rd (Brunswick)","category":"tram","lat":-37.768761,"lon":144.961919,"routes":"19"},{"name":"127-Albion St/Lygon St (Brunswick East)","category":"tram","lat":-37.762369,"lon":144.973265,"routes":"6,1"},{"name":"127-Albion St/Holmes St (Brunswick East)","category":"tram","lat":-37.761887,"lon":144.974061,"routes":"6,1"},{"name":"126-Stewart St/Lygon St (Brunswick East)","category":"tram","lat":-37.764427,"lon":144.972902,"routes":"6,1"},{"name":"126-Stewart St/Lygon St (Brunswick East)","category":"tram","lat":-37.764295,"lon":144.973087,"routes":"6,1"},{"name":"125-Blyth St/Lygon St (Brunswick East)","category":"tram","lat":-37.766664,"lon":144.972512,"routes":"6,1"},{"name":"125-Blyth St/Lygon St (Brunswick East)","category":"tram","lat":-37.766442,"lon":144.972722,"routes":"6,1"},{"name":"124-Victoria St/Lygon St (Brunswick East)","category":"tram","lat":-37.768077,"lon":144.972416,"routes":"6,1"},{"name":"56-Edgewater Square/Gordon St (Maribyrnong)","category":"tram","lat":-37.784898,"lon":144.890599,"routes":"82"},{"name":"56-Edgewater Square/Gordon St (Maribyrnong)","category":"tram","lat":-37.784444,"lon":144.890873,"routes":"82"},{"name":"57-Titch St/Gordon St (Footscray)","category":"tram","lat":-37.788644,"lon":144.889924,"routes":"82"},{"name":"57-Titch St/Gordon St (Footscray)","category":"tram","lat":-37.7888,"lon":144.890068,"routes":"82"},{"name":"58-Ballarat Rd/Gordon St (Footscray)","category":"tram","lat":-37.790476,"lon":144.889554,"routes":"82"},{"name":"58-Ballarat Rd/Gordon St (Footscray)","category":"tram","lat":-37.790551,"lon":144.889723,"routes":"82"},{"name":"59-Droop St/Ballarat Rd (Footscray)","category":"tram","lat":-37.792313,"lon":144.893511,"routes":"82"},{"name":"59-Droop St/Ballarat Rd (Footscray)","category":"tram","lat":-37.792584,"lon":144.893571,"routes":"82"},{"name":"60-Tiernan St/Droop St (Footscray)","category":"tram","lat":-37.794619,"lon":144.895489,"routes":"82"},{"name":"60-Tiernan St/Droop St (Footscray)","category":"tram","lat":-37.79489,"lon":144.895516,"routes":"82"},{"name":"61-Geelong Rd/Droop St (Footscray)","category":"tram","lat":-37.796138,"lon":144.896764,"routes":"82"},{"name":"61-Geelong Rd/Droop St (Footscray)","category":"tram","lat":-37.796793,"lon":144.897131,"routes":"82"},{"name":"62-Nicholson St/Droop St (Footscray)","category":"tram","lat":-37.799276,"lon":144.899412,"routes":"82"},{"name":"62-Nicholson St/Hopkins St (Footscray)","category":"tram","lat":-37.799841,"lon":144.899736,"routes":"82"},{"name":"63-Leeds St/Hopkins St (Footscray)","category":"tram","lat":-37.799853,"lon":144.900917,"routes":"82"},{"name":"63-Footscray Market/Leeds St (Footscray)","category":"tram","lat":-37.800081,"lon":144.901058,"routes":"82"},{"name":"64-Footscray Station/Leeds St (Footscray)","category":"tram","lat":-37.801367,"lon":144.90092,"routes":"82"},{"name":"31-Racing Victoria/161 Epsom Rd (Ascot Vale)","category":"tram","lat":-37.784018,"lon":144.918125,"routes":"57"},{"name":"31-Racing Victoria/400 Epsom Rd (Flemington)","category":"tram","lat":-37.784425,"lon":144.918204,"routes":"57"},{"name":"30-Flemington Racecourse/Epsom Rd (Flemington)","category":"tram","lat":-37.785913,"lon":144.919786,"routes":"57"},{"name":"30-Flemington Racecourse/Epsom Rd (Ascot Vale)","category":"tram","lat":-37.786043,"lon":144.919987,"routes":"57"},{"name":"29-Flemington Racecourse/Racecourse Rd (Flemington)","category":"tram","lat":-37.787446,"lon":144.921889,"routes":"57"},{"name":"29-Flemington Racecourse/Racecourse Rd (Flemington)","category":"tram","lat":-37.787349,"lon":144.922006,"routes":"57"},{"name":"28-Smithfield Rd/Racecourse Rd (Flemington)","category":"tram","lat":-37.787626,"lon":144.92495,"routes":"57"},{"name":"28-Smithfield Rd/Racecourse Rd (Flemington)","category":"tram","lat":-37.787741,"lon":144.925345,"routes":"57"},{"name":"26-Newmarket Plaza/Racecourse Rd (Flemington)","category":"tram","lat":-37.787971,"lon":144.928154,"routes":"57"},{"name":"26-Newmarket Plaza/Racecourse Rd (Kensington)","category":"tram","lat":-37.788074,"lon":144.92839,"routes":"57"},{"name":"36-Hope St/Melville Rd (Brunswick West)","category":"tram","lat":-37.762162,"lon":144.944154,"routes":"58"},{"name":"36-Hope St/Melville Rd (Brunswick West)","category":"tram","lat":-37.76204,"lon":144.944384,"routes":"58"},{"name":"37-Albion St/Melville Rd (Brunswick West)","category":"tram","lat":-37.75874,"lon":144.944771,"routes":"58"},{"name":"37-Albion St/Melville Rd (Brunswick West)","category":"tram","lat":-37.758563,"lon":144.944991,"routes":"58"},{"name":"38-Jacobs Reserve/Melville Rd (Brunswick West)","category":"tram","lat":-37.756764,"lon":144.945154,"routes":"58"},{"name":"38-Jacobs Reserve/Melville Rd (Brunswick West)","category":"tram","lat":-37.756623,"lon":144.945385,"routes":"58"},{"name":"45-Bell St/Melville Rd (Pascoe Vale South)","category":"tram","lat":-37.740117,"lon":144.945592,"routes":"58"},{"name":"44-Brearley Pde/Melville Rd (Pascoe Vale South)","category":"tram","lat":-37.741592,"lon":144.945404,"routes":"58"},{"name":"44-Brearley Pde/Melville Rd (Pascoe Vale South)","category":"tram","lat":-37.741966,"lon":144.945133,"routes":"58"},{"name":"43-Princes Tce/Melville Rd (Pascoe Vale South)","category":"tram","lat":-37.743928,"lon":144.944999,"routes":"58"},{"name":"43-Princes Tce/Melville Rd (Pascoe Vale South)","category":"tram","lat":-37.744122,"lon":144.944767,"routes":"58"},{"name":"42-Reynard St/Melville Rd (Pascoe Vale South)","category":"tram","lat":-37.746399,"lon":144.944556,"routes":"58"},{"name":"42-Reynard St/Melville Rd (Pascoe Vale South)","category":"tram","lat":-37.746611,"lon":144.944334,"routes":"58"},{"name":"41-Woodlands Ave/Melville Rd (Pascoe Vale South)","category":"tram","lat":-37.749317,"lon":144.946552,"routes":"58"},{"name":"41-Woodlands Ave/Melville Rd (Pascoe Vale South)","category":"tram","lat":-37.749512,"lon":144.946354,"routes":"58"},{"name":"40-Moreland Rd/Melville Rd (Brunswick West)","category":"tram","lat":-37.753163,"lon":144.945901,"routes":"58"},{"name":"40-Moreland Rd/Melville Rd (Brunswick West)","category":"tram","lat":-37.753429,"lon":144.945655,"routes":"58"},{"name":"39-McGregor Ave/Melville Rd (Brunswick West)","category":"tram","lat":-37.754779,"lon":144.94555,"routes":"58"},{"name":"39-Mattingley Cres/Melville Rd (Brunswick West)","category":"tram","lat":-37.7548,"lon":144.945708,"routes":"58"},{"name":"52-Rosamond Rd/River St (Maribyrnong)","category":"tram","lat":-37.779332,"lon":144.88575,"routes":"82"},{"name":"52-River St/Rosamond Rd (Maribyrnong)","category":"tram","lat":-37.778502,"lon":144.885206,"routes":"82"},{"name":"53-Maribyrnong College/River St (Maribyrnong)","category":"tram","lat":-37.779594,"lon":144.887786,"routes":"82"},{"name":"53-Maribyrnong College/River St (Maribyrnong)","category":"tram","lat":-37.779545,"lon":144.888094,"routes":"82"},{"name":"55-Lyric St/Gordon St (Maribyrnong)","category":"tram","lat":-37.782241,"lon":144.891151,"routes":"82"},{"name":"55-Lyric St/Gordon St (Maribyrnong)","category":"tram","lat":-37.782118,"lon":144.891348,"routes":"82"},{"name":"51-Williamson Rd/Rosamond Rd (Maidstone)","category":"tram","lat":-37.776293,"lon":144.885643,"routes":"82"},{"name":"54-Gordon St/River St (Maribyrnong)","category":"tram","lat":-37.780002,"lon":144.890931,"routes":"82"},{"name":"54-Gordon St/River St (Maribyrnong)","category":"tram","lat":-37.779917,"lon":144.89124,"routes":"82"},{"name":"32-Sandown Rd/Epsom Rd (Ascot Vale)","category":"tram","lat":-37.782668,"lon":144.916675,"routes":"57"},{"name":"32-Sandown Rd/Epsom Rd (Ascot Vale)","category":"tram","lat":-37.782587,"lon":144.916712,"routes":"57"},{"name":"33-Melbourne Showgrounds/Union Rd (Ascot Vale)","category":"tram","lat":-37.780355,"lon":144.914787,"routes":"57"},{"name":"34-Burrowes St/Union Rd (Ascot Vale)","category":"tram","lat":-37.778627,"lon":144.914949,"routes":"57"},{"name":"34-Burrowes St/Union Rd (Ascot Vale)","category":"tram","lat":-37.778533,"lon":144.915225,"routes":"57"},{"name":"Swan Ct/Westlands Rd (Glen Waverley)","category":"bus","lat":-37.874139,"lon":145.178653,"routes":"742"},{"name":"High Street Rd/Gallaghers Rd (Glen Waverley)","category":"bus","lat":-37.876405,"lon":145.178904,"routes":"754,736"},{"name":"Newton Gr/Gallaghers Rd (Glen Waverley)","category":"bus","lat":-37.877445,"lon":145.17856,"routes":"754,736"},{"name":"Daryl Ave/Gallaghers Rd (Glen Waverley)","category":"bus","lat":-37.880679,"lon":145.177946,"routes":"754,736"},{"name":"Glen Tower Dr/Gallaghers Rd (Glen Waverley)","category":"bus","lat":-37.880439,"lon":145.178146,"routes":"754,736"},{"name":"Mount View PS/Gallaghers Rd (Glen Waverley)","category":"bus","lat":-37.884076,"lon":145.17734,"routes":"754,736"},{"name":"Gwingana Cres/Waverley Rd (Glen Waverley)","category":"bus","lat":-37.889943,"lon":145.174409,"routes":"736"},{"name":"Mimosa St/High Street Rd (Glen Waverley)","category":"bus","lat":-37.876005,"lon":145.1822,"routes":"737,736"},{"name":"Arlington Dr/Gallaghers Rd (Glen Waverley)","category":"bus","lat":-37.885121,"lon":145.177268,"routes":"754,736"},{"name":"Gwingana Cres/Waverley Rd (Glen Waverley)","category":"bus","lat":-37.89009,"lon":145.174587,"routes":"736"},{"name":"Mimosa St/High Street Rd (Glen Waverley)","category":"bus","lat":-37.876176,"lon":145.182184,"routes":"737,736"},{"name":"Rhodes Dr/Gallaghers Rd (Glen Waverley)","category":"bus","lat":-37.885972,"lon":145.176974,"routes":"754,736"},{"name":"Lansell Rd/Gallaghers Rd (Glen Waverley)","category":"bus","lat":-37.888586,"lon":145.176421,"routes":"736"},{"name":"Stirling Cres/Gallaghers Rd (Glen Waverley)","category":"bus","lat":-37.888589,"lon":145.17658,"routes":"736"},{"name":"Paxton Dr/Remington Dr (Glen Waverley)","category":"bus","lat":-37.886918,"lon":145.179271,"routes":"754"},{"name":"Paxton Dr/Remington Dr (Glen Waverley)","category":"bus","lat":-37.887058,"lon":145.179574,"routes":"754"},{"name":"Capital Ave/High Street Rd (Glen Waverley)","category":"bus","lat":-37.876548,"lon":145.186416,"routes":"737,736"},{"name":"Karnak Ct/Remington Dr (Glen Waverley)","category":"bus","lat":-37.887266,"lon":145.181355,"routes":"754"},{"name":"Penhurst Ct/Remington Dr (Glen Waverley)","category":"bus","lat":-37.887374,"lon":145.181363,"routes":"754"},{"name":"Kristen Cl/High Street Rd (Glen Waverley)","category":"bus","lat":-37.876748,"lon":145.187162,"routes":"737,736"},{"name":"Kawana Cres/Remington Dr (Glen Waverley)","category":"bus","lat":-37.888448,"lon":145.182633,"routes":"754"},{"name":"Kawana Cres/Remington Dr (Glen Waverley)","category":"bus","lat":-37.888596,"lon":145.182891,"routes":"754"},{"name":"Waverley Rd/Remington Dr (Glen Waverley)","category":"bus","lat":-37.890487,"lon":145.183948,"routes":"754"},{"name":"Waverley Rd/Remington Dr (Glen Waverley)","category":"bus","lat":-37.890677,"lon":145.184,"routes":"754"},{"name":"Dominion Ct/Waverley Rd (Wheelers Hill)","category":"bus","lat":-37.891437,"lon":145.186528,"routes":"754"},{"name":"Madigan Dr/Waverley Rd (Glen Waverley)","category":"bus","lat":-37.891459,"lon":145.187381,"routes":"754"},{"name":"1103 High Street Rd (Wantirna South)","category":"bus","lat":-37.876697,"lon":145.196702,"routes":"737,736"},{"name":"Northam St/Waverley Rd (Glen Waverley)","category":"bus","lat":-37.891874,"lon":145.190316,"routes":"754"},{"name":"Jells Rd/Waverley Rd (Wheelers Hill)","category":"bus","lat":-37.891846,"lon":145.19084,"routes":"754"},{"name":"Strickland Dr/Jells Rd (Wheelers Hill)","category":"bus","lat":-37.893631,"lon":145.191467,"routes":"754"},{"name":"Strickland Dr/Jells Rd (Wheelers Hill)","category":"bus","lat":-37.893516,"lon":145.191595,"routes":"754"},{"name":"Waverley Rd/Watsons Rd (Glen Waverley)","category":"bus","lat":-37.890076,"lon":145.170244,"routes":"753"},{"name":"Waverley Rd/Watsons Rd (Glen Waverley)","category":"bus","lat":-37.890195,"lon":145.170343,"routes":"753"},{"name":"Viewpoint Ave/Waverley Rd (Glen Waverley)","category":"bus","lat":-37.889557,"lon":145.17103,"routes":"736"},{"name":"Viewpoint Ave/Waverley Rd (Glen Waverley)","category":"bus","lat":-37.889703,"lon":145.171163,"routes":"736"},{"name":"Mannering Dr/Watsons Rd (Glen Waverley)","category":"bus","lat":-37.892314,"lon":145.169813,"routes":"753"},{"name":"Mannering Dr/Watsons Rd (Glen Waverley)","category":"bus","lat":-37.892226,"lon":145.169952,"routes":"753"},{"name":"Brandon Park SC/Brandon Park Dr (Wheelers Hill)","category":"bus","lat":-37.905595,"lon":145.163331,"routes":"850"},{"name":"Clitus St/Watsons Rd (Glen Waverley)","category":"bus","lat":-37.894363,"lon":145.169432,"routes":"753"},{"name":"Brandon Park SC/Brandon Park Dr (Wheelers Hill)","category":"bus","lat":-37.905302,"lon":145.163554,"routes":"850,848"},{"name":"Clitus St/Watsons Rd (Glen Waverley)","category":"bus","lat":-37.894409,"lon":145.169545,"routes":"753"},{"name":"Capella Ct/Watsons Rd (Glen Waverley)","category":"bus","lat":-37.896142,"lon":145.169104,"routes":"753"},{"name":"Brandon Park Reserve/Ferntree Gully Rd (Wheelers Hill)","category":"bus","lat":-37.904033,"lon":145.164848,"routes":"693"},{"name":"Brandon Park Reserve/Ferntree Gully Rd (Glen Waverley)","category":"bus","lat":-37.903926,"lon":145.164919,"routes":"693"},{"name":"Capella Ct/Watsons Rd (Glen Waverley)","category":"bus","lat":-37.896144,"lon":145.169218,"routes":"753"},{"name":"Brentwood Sec Col/Watsons Rd (Glen Waverley)","category":"bus","lat":-37.898336,"lon":145.1688,"routes":"753"},{"name":"Brentwood Sec Col/Watsons Rd (Glen Waverley)","category":"bus","lat":-37.898774,"lon":145.168573,"routes":"753,742"},{"name":"Heath St/Watsons Rd (Glen Waverley)","category":"bus","lat":-37.899836,"lon":145.168512,"routes":"753"},{"name":"Brandon Park Vet Hospital/Ferntree Gully Rd (Wheelers Hill)","category":"bus","lat":-37.904206,"lon":145.166686,"routes":"848,693"},{"name":"Hampstead Cres/Watsons Rd (Glen Waverley)","category":"bus","lat":-37.902306,"lon":145.167939,"routes":"753"},{"name":"Hampstead Cres/Watsons Rd (Glen Waverley)","category":"bus","lat":-37.902227,"lon":145.168066,"routes":"753"},{"name":"Brentwood Dr/Watsons Rd (Glen Waverley)","category":"bus","lat":-37.903134,"lon":145.167884,"routes":"753"},{"name":"Brentwood Dr/Watsons Rd (Glen Waverley)","category":"bus","lat":-37.903456,"lon":145.167717,"routes":"753"},{"name":"Watsons Rd/Ferntree Gully Rd (Glen Waverley)","category":"bus","lat":-37.904298,"lon":145.169152,"routes":"753,693"},{"name":"Cootamundra Dr/Ferntree Gully Rd (Wheelers Hill)","category":"bus","lat":-37.904563,"lon":145.170533,"routes":"848,693"},{"name":"Cootamundra Dr/Ferntree Gully Rd (Wheelers Hill)","category":"bus","lat":-37.904439,"lon":145.171219,"routes":"753,693"},{"name":"Nottingham St/Medina Rd (Glen Waverley)","category":"bus","lat":-37.868103,"lon":145.155634,"routes":"736"},{"name":"Belmont Rd/Willow Ave (Glen Waverley)","category":"bus","lat":-37.865272,"lon":145.157307,"routes":"736"},{"name":"Willow Ave SC/Willow Ave (Glen Waverley)","category":"bus","lat":-37.865383,"lon":145.157498,"routes":"736"},{"name":"Kwinana St/Medina Rd (Glen Waverley)","category":"bus","lat":-37.871489,"lon":145.154344,"routes":"736"},{"name":"Kwinana St/Medina Rd (Glen Waverley)","category":"bus","lat":-37.871349,"lon":145.154598,"routes":"736"},{"name":"Medina Rd/High Street Rd (Glen Waverley)","category":"bus","lat":-37.872878,"lon":145.153855,"routes":"734"},{"name":"Medina Rd/High Street Rd (Glen Waverley)","category":"bus","lat":-37.872848,"lon":145.154242,"routes":"736,734"},{"name":"Gyton Ave/Highbury Rd (Glen Waverley)","category":"bus","lat":-37.861087,"lon":145.161128,"routes":"736"},{"name":"Gyton Ave/Highbury Rd (Glen Waverley)","category":"bus","lat":-37.860963,"lon":145.161234,"routes":"736"},{"name":"Lemair Ave/High Street Rd (Glen Waverley)","category":"bus","lat":-37.872979,"lon":145.156297,"routes":"736,734"},{"name":"Wesley College/High Street Rd (Glen Waverley)","category":"bus","lat":-37.872997,"lon":145.156296,"routes":"754,736"},{"name":"Cedar Ct/Gyton Ave (Glen Waverley)","category":"bus","lat":-37.865041,"lon":145.160996,"routes":"736"},{"name":"Willow Ave/Gyton Ave (Glen Waverley)","category":"bus","lat":-37.865196,"lon":145.161094,"routes":"736"},{"name":"Burwood Terrace Ret Village/Highbury Rd (Glen Waverley)","category":"bus","lat":-37.86126,"lon":145.163534,"routes":"736"},{"name":"Burwood Terrace Ret Village/Highbury Rd (Glen Waverley)","category":"bus","lat":-37.861391,"lon":145.16386,"routes":"736"},{"name":"Mavista Ave/Canova Dr (Glen Waverley)","category":"bus","lat":-37.863877,"lon":145.162594,"routes":"736"},{"name":"Oranna Ct/Canova Dr (Glen Waverley)","category":"bus","lat":-37.863982,"lon":145.162978,"routes":"736"},{"name":"Corunna Ct/Canova Dr (Glen Waverley)","category":"bus","lat":-37.862703,"lon":145.164169,"routes":"736"},{"name":"Pineda Ct/Canova Dr (Glen Waverley)","category":"bus","lat":-37.862812,"lon":145.164268,"routes":"736"},{"name":"Myers Ave/High Street Rd (Glen Waverley)","category":"bus","lat":-37.873381,"lon":145.158947,"routes":"736,734"},{"name":"Fernhill St/High Street Rd (Glen Waverley)","category":"bus","lat":-37.873576,"lon":145.160465,"routes":"736,734"},{"name":"Weeden Dr/Springvale Rd (Vermont South)","category":"bus","lat":-37.859173,"lon":145.169008,"routes":"902"},{"name":"Highbury Rd/Springvale Rd (Glen Waverley)","category":"bus","lat":-37.861224,"lon":145.168775,"routes":"902"},{"name":"Highbury Rd/Springvale Rd (Glen Waverley)","category":"bus","lat":-37.862907,"lon":145.169211,"routes":"902"},{"name":"Tolmie Way/Springvale Rd (Glen Waverley)","category":"bus","lat":-37.865104,"lon":145.168508,"routes":"902"},{"name":"Foxley St/Springvale Rd (Glen Waverley)","category":"bus","lat":-37.865468,"lon":145.168681,"routes":"902"},{"name":"The Boulevard/Springvale Rd (Glen Waverley)","category":"bus","lat":-37.868474,"lon":145.167879,"routes":"902"},{"name":"The Glen SC/High Street Rd (Glen Waverley)","category":"bus","lat":-37.874287,"lon":145.164973,"routes":"742,754,737"},{"name":"Campbell St/Springvale Rd (Glen Waverley)","category":"bus","lat":-37.86846,"lon":145.168141,"routes":"902"},{"name":"Aurisch Ave/Springvale Rd (Glen Waverley)","category":"bus","lat":-37.870837,"lon":145.167412,"routes":"902"},{"name":"Landridge St/Springvale Rd (Glen Waverley)","category":"bus","lat":-37.872233,"lon":145.167388,"routes":"902"},{"name":"High Street Rd/Springvale Rd (Glen Waverley)","category":"bus","lat":-37.873603,"lon":145.166775,"routes":"902"},{"name":"Springvale Rd/High Street Rd (Glen Waverley)","category":"bus","lat":-37.874328,"lon":145.167064,"routes":"742,754,737"},{"name":"Weeden Dr/Hartland Rd (Vermont South)","category":"bus","lat":-37.859806,"lon":145.182518,"routes":"742"},{"name":"Astley Ct/Highmont Dr (Vermont South)","category":"bus","lat":-37.860793,"lon":145.182824,"routes":"742"},{"name":"Astley Ct/Highmont Dr (Vermont South)","category":"bus","lat":-37.860939,"lon":145.182934,"routes":"742"},{"name":"Highbury Rd/Camelot Dr (Glen Waverley)","category":"bus","lat":-37.864045,"lon":145.181528,"routes":"742"},{"name":"Highbury Rd/Camelot Dr (Glen Waverley)","category":"bus","lat":-37.864019,"lon":145.181631,"routes":"742"},{"name":"Ballina Tce/Highmont Dr (Vermont South)","category":"bus","lat":-37.86251,"lon":145.182498,"routes":"742"},{"name":"Kalara Pl/Highmont Dr (Vermont South)","category":"bus","lat":-37.862754,"lon":145.182582,"routes":"742"},{"name":"Vigil Ave/Camelot Dr (Glen Waverley)","category":"bus","lat":-37.867244,"lon":145.180926,"routes":"742"},{"name":"Jousting Pl/Camelot Dr (Glen Waverley)","category":"bus","lat":-37.867084,"lon":145.181066,"routes":"742"},{"name":"Winston St/Westlands Rd (Glen Waverley)","category":"bus","lat":-37.870722,"lon":145.179192,"routes":"742"},{"name":"Winston St/Westlands Rd (Glen Waverley)","category":"bus","lat":-37.870985,"lon":145.179254,"routes":"742"},{"name":"Garwain Pde/Camelot Dr (Glen Waverley)","category":"bus","lat":-37.869445,"lon":145.180497,"routes":"742"},{"name":"Chatswood Cl/Westlands Rd (Glen Waverley)","category":"bus","lat":-37.872591,"lon":145.178839,"routes":"742"},{"name":"Legend Ave/Camelot Dr (Glen Waverley)","category":"bus","lat":-37.869402,"lon":145.180612,"routes":"742"},{"name":"Chatswood Cl/Westlands Rd (Glen Waverley)","category":"bus","lat":-37.872575,"lon":145.178942,"routes":"742"},{"name":"Swan Ct/Westlands Rd (Glen Waverley)","category":"bus","lat":-37.874137,"lon":145.178528,"routes":"742"},{"name":"Ricketts Rd/Blackburn Rd (Mount Waverley)","category":"bus","lat":-37.896689,"lon":145.143628,"routes":"737,703"},{"name":"Avonhurst Dr/Ferntree Gully Rd (Glen Waverley)","category":"bus","lat":-37.902139,"lon":145.149791,"routes":"742,693"},{"name":"Avonhurst Dr/Blackburn Rd (Glen Waverley)","category":"bus","lat":-37.896558,"lon":145.143927,"routes":"737,703"},{"name":"Forster Rd/Waverley Rd (Mount Waverley)","category":"bus","lat":-37.88506,"lon":145.131423,"routes":"623"},{"name":"Carinya Ct/Waverley Rd (Mount Waverley)","category":"bus","lat":-37.885397,"lon":145.132813,"routes":"623"},{"name":"Bruce St/Waverley Rd (Mount Waverley)","category":"bus","lat":-37.885429,"lon":145.134268,"routes":"623"},{"name":"Bruce St/Waverley Rd (Mount Waverley)","category":"bus","lat":-37.885728,"lon":145.1355,"routes":"623"},{"name":"Regent St/Waverley Rd (Mount Waverley)","category":"bus","lat":-37.885709,"lon":145.137138,"routes":"623"},{"name":"Woodlea Dr/Ferntree Gully Rd (Mulgrave)","category":"bus","lat":-37.903057,"lon":145.156604,"routes":"742,693"},{"name":"Pinewood SC/Blackburn Rd (Glen Waverley)","category":"bus","lat":-37.89158,"lon":145.144848,"routes":"737,703"},{"name":"Pinewood Dr/Waverley Rd (Mount Waverley)","category":"bus","lat":-37.886062,"lon":145.138925,"routes":"623"},{"name":"Pinewood SC/Blackburn Rd (Mount Waverley)","category":"bus","lat":-37.891118,"lon":145.144677,"routes":"737,703"},{"name":"Rosemary Ct/Ferntree Gully Rd (Glen Waverley)","category":"bus","lat":-37.903192,"lon":145.158887,"routes":"693"},{"name":"Brandon Park Shopping Centre/Springvale Rd (Wheelers Hill)","category":"bus","lat":-37.905167,"lon":145.161271,"routes":"902,885"},{"name":"Brandon Park Shopping Centre/Springvale Rd (Mulgrave)","category":"bus","lat":-37.904604,"lon":145.161024,"routes":"902,885"},{"name":"Scammell Cl/Waverley Rd (Mount Waverley)","category":"bus","lat":-37.886144,"lon":145.140743,"routes":"623"},{"name":"Springvale Rd/Ferntree Gully Rd (Mulgrave)","category":"bus","lat":-37.903523,"lon":145.160448,"routes":"742,693"},{"name":"Springvale Rd/Ferntree Gully Rd (Glen Waverley)","category":"bus","lat":-37.903262,"lon":145.1605,"routes":"742"},{"name":"Marcella Ct/Blackburn Rd (Glen Waverley)","category":"bus","lat":-37.889578,"lon":145.145296,"routes":"737,703"},{"name":"Coolarn St/Waverley Rd (Mount Waverley)","category":"bus","lat":-37.886389,"lon":145.141953,"routes":"623"},{"name":"Meadow Cres/Waverley Rd (Mount Waverley)","category":"bus","lat":-37.886303,"lon":145.142228,"routes":"623"},{"name":"Ferntree Gully Rd/Springvale Rd (Glen Waverley)","category":"bus","lat":-37.902852,"lon":145.161352,"routes":"885,850"},{"name":"Waverley Rd/Blackburn Rd (Mount Waverley)","category":"bus","lat":-37.888424,"lon":145.145257,"routes":"737,703"},{"name":"Waverley Rd/Blackburn Rd (Glen Waverley)","category":"bus","lat":-37.887547,"lon":145.145688,"routes":"737,703"},{"name":"Ferntree Gully Rd/Springvale Rd (Glen Waverley)","category":"bus","lat":-37.901878,"lon":145.16191,"routes":"885,902,850"},{"name":"Blackburn Rd/Waverley Rd (Glen Waverley)","category":"bus","lat":-37.886754,"lon":145.145105,"routes":"623"},{"name":"Blackburn Rd/Waverley Rd (Glen Waverley)","category":"bus","lat":-37.886749,"lon":145.146515,"routes":"623"},{"name":"Waverley Private Hospital/Blackburn Rd (Glen Waverley)","category":"bus","lat":-37.884976,"lon":145.146071,"routes":"737,703"},{"name":"Stableford Ave/Waverley Rd (Glen Waverley)","category":"bus","lat":-37.887109,"lon":145.14878,"routes":"623"},{"name":"Stableford Ave/Waverley Rd (Glen Waverley)","category":"bus","lat":-37.887249,"lon":145.14905,"routes":"623"},{"name":"Waverley Private Hospital/Blackburn Rd (Mount Waverley)","category":"bus","lat":-37.884488,"lon":145.145969,"routes":"737,703"},{"name":"Oleander St/Springvale Rd (Glen Waverley)","category":"bus","lat":-37.898987,"lon":145.162551,"routes":"850,885,902,742"},{"name":"Booran Ave/Springvale Rd (Glen Waverley)","category":"bus","lat":-37.898758,"lon":145.162329,"routes":"850,885,902,742"},{"name":"Lilian St/Waverley Rd (Glen Waverley)","category":"bus","lat":-37.88754,"lon":145.151499,"routes":"623"},{"name":"Saladin Ave/Waverley Rd (Glen Waverley)","category":"bus","lat":-37.887534,"lon":145.152318,"routes":"623"},{"name":"Whites Lane/Springvale Rd (Glen Waverley)","category":"bus","lat":-37.896687,"lon":145.16304,"routes":"850,885,902,742"},{"name":"Koonalda Ave/Springvale Rd (Glen Waverley)","category":"bus","lat":-37.895532,"lon":145.162955,"routes":"850,885,902,742"},{"name":"Savige Ave/Blackburn Rd (Glen Waverley)","category":"bus","lat":-37.880681,"lon":145.146872,"routes":"737,703"},{"name":"Monash Aquatic & Recreation Centre/Waverley Rd (Glen Waverley)","category":"bus","lat":-37.887965,"lon":145.155093,"routes":"623"},{"name":"Savige Ave/Blackburn Rd (Mount Waverley)","category":"bus","lat":-37.880292,"lon":145.146802,"routes":"737,703"},{"name":"Ranfurlie Dr/Springvale Rd (Glen Waverley)","category":"bus","lat":-37.894628,"lon":145.163365,"routes":"850,885,902,742"},{"name":"Monash Aquatic & Recreation Centre/Waverley Rd (Glen Waverley)","category":"bus","lat":-37.887971,"lon":145.156594,"routes":"623"},{"name":"Vermont St/Springvale Rd (Glen Waverley)","category":"bus","lat":-37.89306,"lon":145.163347,"routes":"850,885,902,742"},{"name":"Harris Cres/Springvale Rd (Glen Waverley)","category":"bus","lat":-37.892957,"lon":145.163645,"routes":"850,885,902,742"},{"name":"Myrtle St/Waverley Rd (Glen Waverley)","category":"bus","lat":-37.888482,"lon":145.15989,"routes":"623"},{"name":"Myrtle St/Waverley Rd (Glen Waverley)","category":"bus","lat":-37.888365,"lon":145.159915,"routes":"623"},{"name":"Syndal Station/Blackburn Rd (Glen Waverley)","category":"bus","lat":-37.876221,"lon":145.14753,"routes":"703"},{"name":"Central Reserve/Springvale Rd (Glen Waverley)","category":"bus","lat":-37.890201,"lon":145.163793,"routes":"850,885,902,742"},{"name":"Roberts St/Springvale Rd (Glen Waverley)","category":"bus","lat":-37.890367,"lon":145.164039,"routes":"850,885,902,742"},{"name":"Syndal Station/Blackburn Rd (Glen Waverley)","category":"bus","lat":-37.875785,"lon":145.14787,"routes":"703"},{"name":"Central Reserve/Waverley Rd (Glen Waverley)","category":"bus","lat":-37.888932,"lon":145.163313,"routes":"623"},{"name":"Syndal Station/Coleman Pde (Glen Waverley)","category":"bus","lat":-37.876753,"lon":145.149847,"routes":"737"},{"name":"Syndal Station/Coleman Pde (Glen Waverley)","category":"bus","lat":-37.876692,"lon":145.149939,"routes":"737"},{"name":"Central Reserve/Waverley Rd (Glen Waverley)","category":"bus","lat":-37.888699,"lon":145.163364,"routes":"623"},{"name":"Springvale Rd/Waverley Rd (Glen Waverley)","category":"bus","lat":-37.888914,"lon":145.165008,"routes":"753,736"},{"name":"Jordan Gr/Waverley Rd (Glen Waverley)","category":"bus","lat":-37.889238,"lon":145.166728,"routes":"753,736"},{"name":"Avendon Bvd/Coleman Pde (Glen Waverley)","category":"bus","lat":-37.877443,"lon":145.153604,"routes":"737"},{"name":"Larkspur Cct/Waverley Rd (Glen Waverley)","category":"bus","lat":-37.889084,"lon":145.166664,"routes":"753,736"},{"name":"Avendon Bvd/Coleman Pde (Glen Waverley)","category":"bus","lat":-37.877408,"lon":145.153662,"routes":"737"},{"name":"St Leonards PS/Springvale Rd (Glen Waverley)","category":"bus","lat":-37.886858,"lon":145.164376,"routes":"736,742,753,850,885,902,623"},{"name":"Kinnoull Gr/Coleman Pde (Glen Waverley)","category":"bus","lat":-37.878073,"lon":145.15584,"routes":"737"},{"name":"Joyce Ave/Waverley Rd (Glen Waverley)","category":"bus","lat":-37.88945,"lon":145.168815,"routes":"753,736"},{"name":"Kinnoull Gr/Coleman Pde (Glen Waverley)","category":"bus","lat":-37.878052,"lon":145.156204,"routes":"737"},{"name":"Olinda St/Waverley Rd (Glen Waverley)","category":"bus","lat":-37.889325,"lon":145.168841,"routes":"753,736"},{"name":"Wilson Rd/Springvale Rd (Glen Waverley)","category":"bus","lat":-37.885649,"lon":145.164861,"routes":"736,742,753,850,885,902,623"},{"name":"Beacon St/Springvale Rd (Glen Waverley)","category":"bus","lat":-37.885321,"lon":145.164653,"routes":"736,742,753,850,885,902,623"},{"name":"Carramar Ave/Coleman Pde (Glen Waverley)","category":"bus","lat":-37.878909,"lon":145.159184,"routes":"737"},{"name":"Carramar Ave/Coleman Pde (Glen Waverley)","category":"bus","lat":-37.878949,"lon":145.159399,"routes":"737"},{"name":"Ingram Ave/Springvale Rd (Glen Waverley)","category":"bus","lat":-37.883852,"lon":145.16519,"routes":"736,742,753,850,885,902,623"},{"name":"Monash Civic Centre/Springvale Rd (Glen Waverley)","category":"bus","lat":-37.882239,"lon":145.165207,"routes":"736,742,753,850,885,902,623"},{"name":"Glen Waverley Station/Railway Pde (Glen Waverley)","category":"bus","lat":-37.879258,"lon":145.161893,"routes":"734"},{"name":"Glen Waverley Station/Railway Pde (Glen Waverley)","category":"bus","lat":-37.879334,"lon":145.162153,"routes":"736"},{"name":"Glen Waverley Station/Railway Pde (Glen Waverley)","category":"bus","lat":-37.879263,"lon":145.162211,"routes":"753"},{"name":"Glen Waverley Station/Railway Pde (Glen Waverley)","category":"bus","lat":-37.879357,"lon":145.162425,"routes":"742"},{"name":"Glen Waverley Station/Railway Pde (Glen Waverley)","category":"bus","lat":-37.879229,"lon":145.162337,"routes":"623"},{"name":"Glen Waverley Station/Railway Pde (Glen Waverley)","category":"bus","lat":-37.879413,"lon":145.162594,"routes":"742"},{"name":"Glen Waverley Station/Railway Pde (Glen Waverley)","category":"bus","lat":-37.879295,"lon":145.162506,"routes":"885,850"},{"name":"Glen Waverley Station/Railway Pde (Glen Waverley)","category":"bus","lat":-37.87949,"lon":145.162865,"routes":"737"},{"name":"Glen Waverley Station/Railway Pde (Glen Waverley)","category":"bus","lat":-37.879325,"lon":145.162687,"routes":"902"},{"name":"Glen Waverley Station/Railway Pde (Glen Waverley)","category":"bus","lat":-37.879373,"lon":145.162879,"routes":"902"},{"name":"Glen Waverley Station/Railway Pde (Glen Waverley)","category":"bus","lat":-37.879411,"lon":145.162992,"routes":"754"},{"name":"The Glen SC/Snedden Dr (Glen Waverley)","category":"bus","lat":-37.876549,"lon":145.163814,"routes":"736,737,742,754,734"},{"name":"The Glen Shopping Centre/Springvale Rd (Glen Waverley)","category":"bus","lat":-37.877691,"lon":145.165991,"routes":"902"},{"name":"The Glen SC/Snedden Dr (Glen Waverley)","category":"bus","lat":-37.875689,"lon":145.164199,"routes":"736,737,742,754,734"},{"name":"Glen Waverley PS/High Street Rd (Glen Waverley)","category":"bus","lat":-37.874657,"lon":145.169113,"routes":"742,754,737"},{"name":"Compton St/High Street Rd (Glen Waverley)","category":"bus","lat":-37.874852,"lon":145.171212,"routes":"742,754,737"},{"name":"Compton St/High Street Rd (Glen Waverley)","category":"bus","lat":-37.874777,"lon":145.171566,"routes":"742,754,737"},{"name":"Boronia Dr/High Street Rd (Glen Waverley)","category":"bus","lat":-37.87508,"lon":145.174287,"routes":"742,754,737"},{"name":"Boronia Dr/High Street Rd (Glen Waverley)","category":"bus","lat":-37.875146,"lon":145.174479,"routes":"742,754,737"},{"name":"Kerrie Rd/High Street Rd (Glen Waverley)","category":"bus","lat":-37.875426,"lon":145.176848,"routes":"742,754,737"},{"name":"Kerrie Rd/High Street Rd (Glen Waverley)","category":"bus","lat":-37.875397,"lon":145.177269,"routes":"742,737"},{"name":"Lionel Rd/Blackburn Rd (Glen Waverley)","category":"bus","lat":-37.899389,"lon":145.143423,"routes":"737,703"},{"name":"Westerfield Dr/Ferntree Gully Rd (Notting Hill)","category":"bus","lat":-37.902256,"lon":145.1498,"routes":"742,693"},{"name":"Newhaven Rd/Burwood Hwy (Burwood East)","category":"bus","lat":-37.85394,"lon":145.159953,"routes":"732"},{"name":"Mahoneys Rd/Burwood Hwy (Burwood East)","category":"bus","lat":-37.854267,"lon":145.162389,"routes":"732"},{"name":"Mahoneys Rd/Burwood Hwy (Burwood East)","category":"bus","lat":-37.854017,"lon":145.163702,"routes":"732"},{"name":"Springvale Rd/Burwood Hwy (Burwood East)","category":"bus","lat":-37.854916,"lon":145.168181,"routes":"732"},{"name":"Burwood Hwy/Springvale Rd (Vermont South)","category":"bus","lat":-37.854192,"lon":145.169176,"routes":"902"},{"name":"Burwood Hwy/Springvale Rd (Vermont South)","category":"bus","lat":-37.85401,"lon":145.169635,"routes":"902"},{"name":"Vision Dr/Springvale Rd (Glen Waverley)","category":"bus","lat":-37.857889,"lon":145.168687,"routes":"902"},{"name":"Springvale Rd/Burwood Hwy (Vermont South)","category":"bus","lat":-37.854851,"lon":145.170979,"routes":"732"},{"name":"Fortescue Gr/Burwood Hwy (Vermont South)","category":"bus","lat":-37.85569,"lon":145.175072,"routes":"732"},{"name":"Fankhauser Dr/Burwood Hwy (Vermont South)","category":"bus","lat":-37.855539,"lon":145.176383,"routes":"732"},{"name":"Vermont South Tram Terminus/Burwood Hwy (Vermont South)","category":"bus","lat":-37.856547,"lon":145.182746,"routes":"732"},{"name":"Burwood Hwy/Hartland Rd (Vermont South)","category":"bus","lat":-37.857378,"lon":145.182851,"routes":"742"},{"name":"Burwood Hwy/Hartland Rd (Vermont South)","category":"bus","lat":-37.857362,"lon":145.182999,"routes":"742"},{"name":"Citrus St/Hartland Rd (Vermont South)","category":"bus","lat":-37.858645,"lon":145.182604,"routes":"742"},{"name":"Golf Ave/High Street Rd (Mount Waverley)","category":"bus","lat":-37.869209,"lon":145.122422,"routes":"734"},{"name":"Park Rd/High Street Rd (Mount Waverley)","category":"bus","lat":-37.869182,"lon":145.123003,"routes":"734"},{"name":"Park Rd/High Street Rd (Mount Waverley)","category":"bus","lat":-37.869399,"lon":145.12418,"routes":"734"},{"name":"Alice St/High Street Rd (Mount Waverley)","category":"bus","lat":-37.869352,"lon":145.124613,"routes":"734"},{"name":"Eton St/Stephensons Rd (Mount Waverley)","category":"bus","lat":-37.860247,"lon":145.1318,"routes":"733"},{"name":"Eton St/Stephensons Rd (Mount Waverley)","category":"bus","lat":-37.860582,"lon":145.131917,"routes":"733"},{"name":"Monomeith Cres/Stephensons Rd (Mount Waverley)","category":"bus","lat":-37.862772,"lon":145.131338,"routes":"733"},{"name":"Marsham Rd/Stephensons Rd (Mount Waverley)","category":"bus","lat":-37.862739,"lon":145.13151,"routes":"733"},{"name":"Mt Waverley Sec Col/Stephensons Rd (Mount Waverley)","category":"bus","lat":-37.86482,"lon":145.130946,"routes":"733"},{"name":"Sunhill Rd/High Street Rd (Mount Waverley)","category":"bus","lat":-37.869831,"lon":145.128705,"routes":"734"},{"name":"Marianne Way/Stephensons Rd (Mount Waverley)","category":"bus","lat":-37.865776,"lon":145.130967,"routes":"733"},{"name":"Stephensons Rd/High Street Rd (Mount Waverley)","category":"bus","lat":-37.870066,"lon":145.129312,"routes":"734"},{"name":"High Street Rd/Stephensons Rd (Mount Waverley)","category":"bus","lat":-37.868921,"lon":145.130365,"routes":"733"},{"name":"High Street Rd/Stephensons Rd (Mount Waverley)","category":"bus","lat":-37.870517,"lon":145.129858,"routes":"733"},{"name":"White St/Stephensons Rd (Mount Waverley)","category":"bus","lat":-37.871973,"lon":145.129617,"routes":"733"},{"name":"Stephensons Rd/High Street Rd (Mount Waverley)","category":"bus","lat":-37.870128,"lon":145.130948,"routes":"734"},{"name":"Fleet St/High Street Rd (Mount Waverley)","category":"bus","lat":-37.870885,"lon":145.136636,"routes":"734"},{"name":"Fleet St/High Street Rd (Mount Waverley)","category":"bus","lat":-37.87083,"lon":145.137092,"routes":"734"},{"name":"Stewart St/High Street Rd (Mount Waverley)","category":"bus","lat":-37.871201,"lon":145.139493,"routes":"734"},{"name":"Josephine Ave/High Street Rd (Mount Waverley)","category":"bus","lat":-37.871135,"lon":145.139892,"routes":"734"},{"name":"Lawrence Rd/High Street Rd (Mount Waverley)","category":"bus","lat":-37.87145,"lon":145.141578,"routes":"734"},{"name":"Lawrence Rd/High Street Rd (Mount Waverley)","category":"bus","lat":-37.871518,"lon":145.142986,"routes":"734"},{"name":"Highbury Park/Blackburn Rd (Burwood East)","category":"bus","lat":-37.859185,"lon":145.150707,"routes":"736,703"},{"name":"Highbury Park/Blackburn Rd (Burwood East)","category":"bus","lat":-37.858748,"lon":145.151025,"routes":"736,703"},{"name":"Inverell Ave/High Street Rd (Mount Waverley)","category":"bus","lat":-37.871783,"lon":145.144389,"routes":"734"},{"name":"Tally Ho Shops/Blackburn Rd (Glen Waverley)","category":"bus","lat":-37.862088,"lon":145.150259,"routes":"703"},{"name":"Cypress Ave/Blackburn Rd (Glen Waverley)","category":"bus","lat":-37.862288,"lon":145.150368,"routes":"703"},{"name":"Burwood East PS/Highbury Rd (Burwood East)","category":"bus","lat":-37.859832,"lon":145.151782,"routes":"736"},{"name":"Elm Gr/High Street Rd (Mount Waverley)","category":"bus","lat":-37.871882,"lon":145.146103,"routes":"734"},{"name":"Bizley St/Blackburn Rd (Glen Waverley)","category":"bus","lat":-37.865431,"lon":145.149619,"routes":"703"},{"name":"Cherry St/Blackburn Rd (Glen Waverley)","category":"bus","lat":-37.8659,"lon":145.149675,"routes":"703"},{"name":"Utah Rd/Blackburn Rd (Glen Waverley)","category":"bus","lat":-37.868198,"lon":145.149072,"routes":"703"},{"name":"Utah Rd/Blackburn Rd (Glen Waverley)","category":"bus","lat":-37.868596,"lon":145.149153,"routes":"703"},{"name":"Sevenoaks Rd/Highbury Rd (Glen Waverley)","category":"bus","lat":-37.860258,"lon":145.154192,"routes":"736"},{"name":"Tambo Ct/Blackburn Rd (Glen Waverley)","category":"bus","lat":-37.87015,"lon":145.148841,"routes":"703"},{"name":"Doon Ave/Blackburn Rd (Glen Waverley)","category":"bus","lat":-37.871073,"lon":145.148534,"routes":"703"},{"name":"High Street Rd/Blackburn Rd (Glen Waverley)","category":"bus","lat":-37.871516,"lon":145.148591,"routes":"703"},{"name":"High Street Rd/Blackburn Rd (Mount Waverley)","category":"bus","lat":-37.872637,"lon":145.148233,"routes":"703"},{"name":"Newhaven Rd/Highbury Rd (Burwood East)","category":"bus","lat":-37.860324,"lon":145.155578,"routes":"736"},{"name":"Blackburn Rd/High Street Rd (Glen Waverley)","category":"bus","lat":-37.872267,"lon":145.149357,"routes":"734"},{"name":"Blackburn Rd/High Street Rd (Glen Waverley)","category":"bus","lat":-37.872387,"lon":145.149536,"routes":"734"},{"name":"Belmont Rd/Highbury Rd (Glen Waverley)","category":"bus","lat":-37.860626,"lon":145.157559,"routes":"736"},{"name":"Edith St/High Street Rd (Glen Waverley)","category":"bus","lat":-37.872667,"lon":145.151893,"routes":"734"},{"name":"Orchard St/High Street Rd (Glen Waverley)","category":"bus","lat":-37.872633,"lon":145.152565,"routes":"734"},{"name":"Lincoln St/Highbury Rd (Burwood East)","category":"bus","lat":-37.860734,"lon":145.159284,"routes":"736"},{"name":"Glendal PS/Medina Rd (Glen Waverley)","category":"bus","lat":-37.867511,"lon":145.155864,"routes":"736"},{"name":"Highview Gr/Burwood Hwy (Burwood East)","category":"bus","lat":-37.851997,"lon":145.145806,"routes":"735,732"},{"name":"Ray Rd/Blackburn Rd (Burwood East)","category":"bus","lat":-37.854883,"lon":145.15169,"routes":"736,703"},{"name":"Witchwood Cres/Blackburn Rd (Burwood East)","category":"bus","lat":-37.856092,"lon":145.151216,"routes":"736,703"},{"name":"Alice St/Blackburn Rd (Burwood East)","category":"bus","lat":-37.857193,"lon":145.151291,"routes":"736,703"},{"name":"Tainton Rd/Burwood Hwy (Burwood East)","category":"bus","lat":-37.853269,"lon":145.155628,"routes":"732"},{"name":"Tainton Rd/Burwood Hwy (Burwood East)","category":"bus","lat":-37.853034,"lon":145.156191,"routes":"732"},{"name":"Newhaven Rd/Burwood Hwy (Burwood East)","category":"bus","lat":-37.853539,"lon":145.159622,"routes":"732"},{"name":"Frederick St/Whitehorse Rd (Blackburn)","category":"bus","lat":-37.817459,"lon":145.146671,"routes":"279,271"},{"name":"Downing St/Whitehorse Rd (Blackburn)","category":"bus","lat":-37.817623,"lon":145.146258,"routes":"279,271"},{"name":"Whitehorse Rd/Station St (Blackburn)","category":"bus","lat":-37.817651,"lon":145.150267,"routes":"279,271"},{"name":"Whitehorse Rd/Station St (Blackburn)","category":"bus","lat":-37.818048,"lon":145.150314,"routes":"279,271"},{"name":"Blackburn Station/Railway Rd (Blackburn)","category":"bus","lat":-37.819796,"lon":145.150316,"routes":"279,271"},{"name":"Blackburn Station/Railway Rd (Blackburn)","category":"bus","lat":-37.819902,"lon":145.150143,"routes":"279,901,271"},{"name":"Albert St/Railway Rd (Blackburn)","category":"bus","lat":-37.819915,"lon":145.152153,"routes":"279,901,271"},{"name":"Blackburn Station/South Pde (Blackburn)","category":"bus","lat":-37.820413,"lon":145.151141,"routes":"736"},{"name":"Blackburn Station/South Pde (Blackburn)","category":"bus","lat":-37.820454,"lon":145.150879,"routes":"765"},{"name":"Blackburn Station/South Pde (Blackburn)","category":"bus","lat":-37.820461,"lon":145.150731,"routes":"765"},{"name":"Blackburn Station/South Pde (Blackburn)","category":"bus","lat":-37.820472,"lon":145.150333,"routes":"703"},{"name":"Blackburn Rd/Central Rd (Blackburn)","category":"bus","lat":-37.821213,"lon":145.153314,"routes":"736"},{"name":"Blackburn Rd/Central Rd (Blackburn)","category":"bus","lat":-37.821281,"lon":145.153619,"routes":"736"},{"name":"The Avenue/Main St (Blackburn)","category":"bus","lat":-37.823318,"lon":145.149648,"routes":"703"},{"name":"The Avenue/Main St (Blackburn)","category":"bus","lat":-37.823398,"lon":145.149533,"routes":"765,703"},{"name":"Wolseley Cres/Blackburn Rd (Blackburn)","category":"bus","lat":-37.823883,"lon":145.152327,"routes":"765"},{"name":"Wolseley Cres/Blackburn Rd (Blackburn)","category":"bus","lat":-37.823918,"lon":145.152235,"routes":"765"},{"name":"Linum St/Main St (Blackburn)","category":"bus","lat":-37.824503,"lon":145.149323,"routes":"765,703"},{"name":"Linum St/Main St (Blackburn)","category":"bus","lat":-37.824648,"lon":145.149388,"routes":"703"},{"name":"Wellington Ave/Blackburn Rd (Blackburn)","category":"bus","lat":-37.826691,"lon":145.152666,"routes":"765"},{"name":"Furness St/Blackburn Rd (Blackburn)","category":"bus","lat":-37.826789,"lon":145.152584,"routes":"765"},{"name":"Heath St/Main St (Blackburn)","category":"bus","lat":-37.82721,"lon":145.149006,"routes":"765,703"},{"name":"Heath St/Main St (Blackburn)","category":"bus","lat":-37.827635,"lon":145.149052,"routes":"703"},{"name":"Walsham Rd/Blackburn Rd (Blackburn)","category":"bus","lat":-37.828612,"lon":145.153322,"routes":"765"},{"name":"Molleton St/Main St (Blackburn)","category":"bus","lat":-37.828758,"lon":145.148819,"routes":"765,703"},{"name":"Walsham Rd/Blackburn Rd (Blackburn)","category":"bus","lat":-37.828764,"lon":145.15325,"routes":"765"},{"name":"Molleton St/Main St (Blackburn)","category":"bus","lat":-37.828849,"lon":145.148908,"routes":"703"},{"name":"Pakenham St/Canterbury Rd (Blackburn)","category":"bus","lat":-37.830793,"lon":145.14019,"routes":"765"},{"name":"Aberdeen Rd/Canterbury Rd (Blackburn South)","category":"bus","lat":-37.830945,"lon":145.140073,"routes":"765"},{"name":"Donald St/Canterbury Rd (Blackburn)","category":"bus","lat":-37.831159,"lon":145.14334,"routes":"765"},{"name":"Donald St/Canterbury Rd (Blackburn South)","category":"bus","lat":-37.831348,"lon":145.143335,"routes":"765"},{"name":"Canterbury Rd/Main St (Blackburn)","category":"bus","lat":-37.831465,"lon":145.148513,"routes":"703"},{"name":"Wreford Rd/Canterbury Rd (Blackburn)","category":"bus","lat":-37.831477,"lon":145.145786,"routes":"765"},{"name":"Canterbury Rd/Main St (Blackburn)","category":"bus","lat":-37.831571,"lon":145.148363,"routes":"765,703"},{"name":"Wreford Rd/Canterbury Rd (Blackburn South)","category":"bus","lat":-37.831655,"lon":145.145679,"routes":"765"},{"name":"Aldinga St/Middleborough Rd (Blackburn South)","category":"bus","lat":-37.839485,"lon":145.134767,"routes":"733"},{"name":"Mirabella Cres/Middleborough Rd (Box Hill South)","category":"bus","lat":-37.841028,"lon":145.134297,"routes":"733"},{"name":"Greenwood St/Burwood Hwy (Burwood)","category":"bus","lat":-37.851456,"lon":145.128681,"routes":"732"},{"name":"Fulton Rd/Middleborough Rd (Blackburn South)","category":"bus","lat":-37.841174,"lon":145.134418,"routes":"733"},{"name":"Greenwood St/Burwood Hwy (Burwood)","category":"bus","lat":-37.851763,"lon":145.128718,"routes":"732"},{"name":"Hastings Ave/Middleborough Rd (Blackburn South)","category":"bus","lat":-37.842136,"lon":145.134246,"routes":"735,733"},{"name":"Jenner St/Middleborough Rd (Blackburn South)","category":"bus","lat":-37.843185,"lon":145.133935,"routes":"735,733"},{"name":"Middleborough Rd/Fulton Rd (Blackburn South)","category":"bus","lat":-37.841624,"lon":145.134918,"routes":"735"},{"name":"Middleborough Rd/Eley Rd (Blackburn South)","category":"bus","lat":-37.845788,"lon":145.132711,"routes":"735"},{"name":"Middleborough Rd/Fulton Rd (Blackburn South)","category":"bus","lat":-37.841545,"lon":145.13509,"routes":"735"},{"name":"Joyhill Ave/Middleborough Rd (Box Hill South)","category":"bus","lat":-37.843789,"lon":145.133943,"routes":"735,733"},{"name":"Eley Rd/Middleborough Rd (Burwood)","category":"bus","lat":-37.845512,"lon":145.133456,"routes":"735,733"},{"name":"Eley Rd/Middleborough Rd (Burwood East)","category":"bus","lat":-37.846296,"lon":145.133459,"routes":"733"},{"name":"Stewart St/Middleborough Rd (Burwood)","category":"bus","lat":-37.84827,"lon":145.132932,"routes":"733"},{"name":"Stewart St/Middleborough Rd (Burwood)","category":"bus","lat":-37.848219,"lon":145.133115,"routes":"733"},{"name":"Worrall St/Middleborough Rd (Burwood)","category":"bus","lat":-37.849537,"lon":145.132707,"routes":"733"},{"name":"Johnston St/Middleborough Rd (Burwood)","category":"bus","lat":-37.849558,"lon":145.132865,"routes":"733"},{"name":"Middleborough Rd/Burwood Hwy (Burwood East)","category":"bus","lat":-37.852097,"lon":145.131597,"routes":"732"},{"name":"Richmond St/Fulton Rd (Blackburn South)","category":"bus","lat":-37.841925,"lon":145.137444,"routes":"735"},{"name":"Burwood Hwy/Middleborough Rd (Burwood)","category":"bus","lat":-37.85253,"lon":145.132211,"routes":"733"},{"name":"Richmond St/Fulton Rd (Blackburn South)","category":"bus","lat":-37.841906,"lon":145.137979,"routes":"735"},{"name":"Burwood Hwy/Middleborough Rd (Burwood East)","category":"bus","lat":-37.852632,"lon":145.132413,"routes":"733"},{"name":"Middleborough Rd/Burwood Hwy (Burwood East)","category":"bus","lat":-37.851868,"lon":145.133069,"routes":"732"},{"name":"Rees St/Middleborough Rd (Burwood)","category":"bus","lat":-37.855262,"lon":145.131721,"routes":"733"},{"name":"Rees St/Middleborough Rd (Burwood)","category":"bus","lat":-37.855265,"lon":145.131903,"routes":"733"},{"name":"Highbury Rd/Middleborough Rd (Burwood East)","category":"bus","lat":-37.856936,"lon":145.131611,"routes":"733"},{"name":"Highbury Rd/Stephensons Rd (Mount Waverley)","category":"bus","lat":-37.857842,"lon":145.131327,"routes":"733"},{"name":"Harrow St/Fulton Rd (Blackburn South)","category":"bus","lat":-37.84221,"lon":145.140665,"routes":"735"},{"name":"Jenner St/Fulton Rd (Blackburn South)","category":"bus","lat":-37.842402,"lon":145.141399,"routes":"735"},{"name":"Crow St/Burwood Hwy (Burwood East)","category":"bus","lat":-37.852017,"lon":145.136781,"routes":"732"},{"name":"Old Burwood Rd/Burwood Hwy (Burwood East)","category":"bus","lat":-37.851376,"lon":145.137843,"routes":"732"},{"name":"Freda Ct/Fulton Rd (Blackburn South)","category":"bus","lat":-37.842704,"lon":145.143402,"routes":"735"},{"name":"Old Burwood Rd/Burwood Hwy (Burwood East)","category":"bus","lat":-37.851425,"lon":145.139251,"routes":"732"},{"name":"Oakham Ave/Burwood Hwy (Burwood East)","category":"bus","lat":-37.851069,"lon":145.139544,"routes":"732"},{"name":"Lucia St/Fulton Rd (Blackburn South)","category":"bus","lat":-37.842617,"lon":145.144189,"routes":"735"},{"name":"Eley Rd/Royton St (Burwood East)","category":"bus","lat":-37.847419,"lon":145.142943,"routes":"735"},{"name":"Eley Rd/Royton St (Burwood East)","category":"bus","lat":-37.847474,"lon":145.143021,"routes":"735"},{"name":"Benwerrin Reserve/Burwood Hwy (Burwood East)","category":"bus","lat":-37.851441,"lon":145.141388,"routes":"732"},{"name":"Davis St/Royton St (Burwood East)","category":"bus","lat":-37.849198,"lon":145.142603,"routes":"735"},{"name":"Glyndon Ct/Royton St (Burwood East)","category":"bus","lat":-37.849631,"lon":145.142615,"routes":"735"},{"name":"Streeton Ct/Eley Rd (Burwood East)","category":"bus","lat":-37.847062,"lon":145.144282,"routes":"735"},{"name":"Glyndon Ct/Royton St (Burwood East)","category":"bus","lat":-37.850601,"lon":145.14242,"routes":"735"},{"name":"Royton St/Burwood Hwy (Burwood East)","category":"bus","lat":-37.851213,"lon":145.142393,"routes":"732"},{"name":"Streeton Ct/Eley Rd (Blackburn South)","category":"bus","lat":-37.847194,"lon":145.144665,"routes":"735"},{"name":"Tiller St/Burwood Hwy (Burwood East)","category":"bus","lat":-37.851687,"lon":145.143302,"routes":"732"},{"name":"Tiller St/Burwood Hwy (Burwood East)","category":"bus","lat":-37.851459,"lon":145.144274,"routes":"735,732"},{"name":"Jolie Gr/Barkly St (Box Hill)","category":"bus","lat":-37.827685,"lon":145.13002,"routes":"765"},{"name":"Menzies St/Barkly St (Box Hill)","category":"bus","lat":-37.827837,"lon":145.129914,"routes":"765"},{"name":"Landale St/Station St (Box Hill)","category":"bus","lat":-37.828141,"lon":145.121862,"routes":"735,768,903,732"},{"name":"RHL Sparks Reserve/Middleborough Rd (Blackburn)","category":"bus","lat":-37.828151,"lon":145.136621,"routes":"733"},{"name":"RHL Sparks Reserve/Middleborough Rd (Blackburn)","category":"bus","lat":-37.828188,"lon":145.136711,"routes":"733"},{"name":"Canterbury Rd/Station St (Box Hill South)","category":"bus","lat":-37.82906,"lon":145.12185,"routes":"903,732"},{"name":"Canterbury Rd/Barkly St (Box Hill)","category":"bus","lat":-37.829231,"lon":145.129731,"routes":"765"},{"name":"Canterbury Rd/Barkly St (Box Hill)","category":"bus","lat":-37.829247,"lon":145.129639,"routes":"765"},{"name":"Canterbury Rd/Haig St (Box Hill South)","category":"bus","lat":-37.82949,"lon":145.12677,"routes":"735"},{"name":"Canterbury Rd/Haig St (Box Hill South)","category":"bus","lat":-37.829506,"lon":145.126611,"routes":"735"},{"name":"Piedmont St/Elgar Rd (Box Hill South)","category":"bus","lat":-37.829672,"lon":145.112733,"routes":"767,768,281"},{"name":"Erasmus St/Elgar Rd (Surrey Hills)","category":"bus","lat":-37.829822,"lon":145.112525,"routes":"767,768,281"},{"name":"Wembley Park/Canterbury Rd (Box Hill)","category":"bus","lat":-37.830029,"lon":145.133483,"routes":"765"},{"name":"Wembley Park/Canterbury Rd (Box Hill South)","category":"bus","lat":-37.830128,"lon":145.133458,"routes":"765"},{"name":"Middleborough Rd/Canterbury Rd (Box Hill)","category":"bus","lat":-37.830453,"lon":145.137483,"routes":"765"},{"name":"Middleborough Rd/Canterbury Rd (Blackburn South)","category":"bus","lat":-37.830581,"lon":145.137003,"routes":"765"},{"name":"Canterbury Rd/Middleborough Rd (Box Hill South)","category":"bus","lat":-37.830837,"lon":145.136099,"routes":"733"},{"name":"Venice St/Elgar Rd (Box Hill South)","category":"bus","lat":-37.831308,"lon":145.112498,"routes":"767,768,281"},{"name":"Canterbury Rd/Middleborough Rd (Blackburn South)","category":"bus","lat":-37.83155,"lon":145.136171,"routes":"733"},{"name":"Peace St/Haig St (Box Hill South)","category":"bus","lat":-37.83162,"lon":145.126955,"routes":"735"},{"name":"Peace St/Haig St (Box Hill South)","category":"bus","lat":-37.831646,"lon":145.126863,"routes":"735"},{"name":"Kingswood College/Station St (Box Hill South)","category":"bus","lat":-37.831648,"lon":145.121352,"routes":"903,732"},{"name":"Kingswood College/Station St (Box Hill South)","category":"bus","lat":-37.831762,"lon":145.12119,"routes":"903,732"},{"name":"Ayr St/Middleborough Rd (Blackburn South)","category":"bus","lat":-37.833024,"lon":145.13593,"routes":"733"},{"name":"Ayr St/Middleborough Rd (Box Hill South)","category":"bus","lat":-37.833094,"lon":145.13578,"routes":"733"},{"name":"Prince St/Haig St (Box Hill South)","category":"bus","lat":-37.833147,"lon":145.126666,"routes":"735"},{"name":"Prince St/Haig St (Box Hill South)","category":"bus","lat":-37.833245,"lon":145.126596,"routes":"735"},{"name":"Devon St/Station St (Box Hill South)","category":"bus","lat":-37.833893,"lon":145.12083,"routes":"903,732"},{"name":"Devon St/Station St (Box Hill South)","category":"bus","lat":-37.834057,"lon":145.120939,"routes":"903,732"},{"name":"Devon St/Haig St (Box Hill South)","category":"bus","lat":-37.834469,"lon":145.126451,"routes":"735"},{"name":"Devon St/Haig St (Box Hill South)","category":"bus","lat":-37.834566,"lon":145.126358,"routes":"735"},{"name":"Dundee St/Middleborough Rd (Blackburn South)","category":"bus","lat":-37.834894,"lon":145.13561,"routes":"733"},{"name":"Duncan St/Station St (Box Hill South)","category":"bus","lat":-37.835279,"lon":145.120726,"routes":"903,732"},{"name":"Clarice Rd/Middleborough Rd (Box Hill South)","category":"bus","lat":-37.835421,"lon":145.135324,"routes":"733"},{"name":"Foch St/Haig St (Box Hill South)","category":"bus","lat":-37.835923,"lon":145.126119,"routes":"735"},{"name":"Foch St/Haig St (Box Hill South)","category":"bus","lat":-37.836023,"lon":145.12615,"routes":"735"},{"name":"Station St/Foch St (Box Hill South)","category":"bus","lat":-37.836632,"lon":145.120828,"routes":"735"},{"name":"Foch St/Station St (Box Hill South)","category":"bus","lat":-37.836678,"lon":145.120316,"routes":"903,732"},{"name":"Station St/Foch St (Box Hill South)","category":"bus","lat":-37.836704,"lon":145.120815,"routes":"735"},{"name":"Foch St/Station St (Box Hill South)","category":"bus","lat":-37.836806,"lon":145.120437,"routes":"903,732"},{"name":"Sycamore St/Foch St (Box Hill South)","category":"bus","lat":-37.836944,"lon":145.1234,"routes":"735"},{"name":"Sycamore St/Foch St (Box Hill South)","category":"bus","lat":-37.837025,"lon":145.123398,"routes":"735"},{"name":"Inala Village/Middleborough Rd (Blackburn South)","category":"bus","lat":-37.837607,"lon":145.13511,"routes":"733"},{"name":"Inala Village/249 Middleborough Rd (Box Hill South)","category":"bus","lat":-37.837676,"lon":145.134881,"routes":"733"},{"name":"Riversdale Rd/Station St (Box Hill South)","category":"bus","lat":-37.838892,"lon":145.120703,"routes":"735,732"},{"name":"Aldinga St/Middleborough Rd (Blackburn South)","category":"bus","lat":-37.839122,"lon":145.134606,"routes":"733"},{"name":"Andrews St/Eley Rd (Burwood)","category":"bus","lat":-37.845206,"lon":145.128395,"routes":"735"},{"name":"Abrahams Ct/Eley Rd (Burwood)","category":"bus","lat":-37.845475,"lon":145.130014,"routes":"735"},{"name":"Cornfield Gr/Eley Rd (Box Hill South)","category":"bus","lat":-37.84549,"lon":145.130957,"routes":"735"},{"name":"Rosemary Gr/Warrigal Rd (Glen Iris)","category":"bus","lat":-37.852855,"lon":145.095116,"routes":"903"},{"name":"Highbury Rd/Warrigal Rd (Burwood)","category":"bus","lat":-37.852876,"lon":145.095275,"routes":"903"},{"name":"High Street Rd/Huntingdale Rd (Ashwood)","category":"bus","lat":-37.867451,"lon":145.111724,"routes":"767"},{"name":"Huntingdale Rd/High Street Rd (Mount Waverley)","category":"bus","lat":-37.867988,"lon":145.112586,"routes":"734"},{"name":"Fairview Rd/Huntingdale Rd (Mount Waverley)","category":"bus","lat":-37.866627,"lon":145.112041,"routes":"767"},{"name":"Sylvan Cres/Huntingdale Rd (Ashwood)","category":"bus","lat":-37.86623,"lon":145.11196,"routes":"767"},{"name":"Burwood Hwy/Warrigal Rd (Glen Iris)","category":"bus","lat":-37.850931,"lon":145.095427,"routes":"903,766"},{"name":"Burwood Hwy/Warrigal Rd (Burwood)","category":"bus","lat":-37.850828,"lon":145.095726,"routes":"903"},{"name":"281 High Street Rd (Mount Waverley)","category":"bus","lat":-37.868293,"lon":145.115284,"routes":"734"},{"name":"opp 283 High Street Rd (Mount Waverley)","category":"bus","lat":-37.868394,"lon":145.115429,"routes":"734"},{"name":"Essex Heights Reserve/Huntingdale Rd (Mount Waverley)","category":"bus","lat":-37.86404,"lon":145.112562,"routes":"767"},{"name":"St Benedicts School/Warrigal Rd (Camberwell)","category":"bus","lat":-37.848703,"lon":145.095837,"routes":"903,766"},{"name":"Evans St/Highbury Rd (Burwood)","category":"bus","lat":-37.854356,"lon":145.102147,"routes":"766"},{"name":"St Benedicts School/Warrigal Rd (Burwood)","category":"bus","lat":-37.848786,"lon":145.095971,"routes":"903,766"},{"name":"Essex Heights Reserve/Huntingdale Rd (Ashwood)","category":"bus","lat":-37.863534,"lon":145.112461,"routes":"767"},{"name":"Glen Iris Valley Tennis Club/High Street Rd (Mount Waverley)","category":"bus","lat":-37.868756,"lon":145.118364,"routes":"734"},{"name":"Glen Iris Valley Tennis Club/High Street Rd (Mount Waverley)","category":"bus","lat":-37.86862,"lon":145.118322,"routes":"734"},{"name":"Eildon Rd/Huntingdale Rd (Ashwood)","category":"bus","lat":-37.862204,"lon":145.112722,"routes":"767"},{"name":"Essex Rd/Huntingdale Rd (Mount Waverley)","category":"bus","lat":-37.86209,"lon":145.112884,"routes":"767"},{"name":"Wallace Rd/Warrigal Rd (Burwood)","category":"bus","lat":-37.846621,"lon":145.096368,"routes":"903,766"},{"name":"Lesley St/Warrigal Rd (Camberwell)","category":"bus","lat":-37.846493,"lon":145.096246,"routes":"903,766"},{"name":"Lynden Gr/Huntingdale Rd (Mount Waverley)","category":"bus","lat":-37.860742,"lon":145.113134,"routes":"767"},{"name":"Arthur St/Huntingdale Rd (Ashwood)","category":"bus","lat":-37.859885,"lon":145.1131,"routes":"767"},{"name":"Leyland Rd/Huntingdale Rd (Ashwood)","category":"bus","lat":-37.857451,"lon":145.113594,"routes":"767"},{"name":"Barlyn Rd/Huntingdale Rd (Mount Waverley)","category":"bus","lat":-37.857022,"lon":145.11382,"routes":"767"},{"name":"Huntingdale Rd/Highbury Rd (Mount Waverley)","category":"bus","lat":-37.855669,"lon":145.114855,"routes":"767"},{"name":"Peacock St/Highbury Rd (Burwood)","category":"bus","lat":-37.855551,"lon":145.114824,"routes":"767"},{"name":"Burwood Hwy/Elgar Rd (Burwood)","category":"bus","lat":-37.849179,"lon":145.109133,"routes":"767,768,281"},{"name":"Burwood Hwy/Elgar Rd (Burwood)","category":"bus","lat":-37.848709,"lon":145.109077,"routes":"767,768,281"},{"name":"Station Pl/Highbury Rd (Mount Waverley)","category":"bus","lat":-37.856003,"lon":145.117688,"routes":"767"},{"name":"Station St/Highbury Rd (Burwood)","category":"bus","lat":-37.855958,"lon":145.118246,"routes":"767"},{"name":"Daniel St/Elgar Rd (Burwood)","category":"bus","lat":-37.847002,"lon":145.109382,"routes":"767,768,281"},{"name":"Goold St/Station St (Burwood)","category":"bus","lat":-37.855063,"lon":145.119201,"routes":"767"},{"name":"Cropley Ct/Elgar Rd (Burwood)","category":"bus","lat":-37.846402,"lon":145.109613,"routes":"767,768,281"},{"name":"Goold St/Station St (Burwood)","category":"bus","lat":-37.854503,"lon":145.119147,"routes":"767"},{"name":"Deakin University/Burwood Hwy (Burwood)","category":"bus","lat":-37.850197,"lon":145.115335,"routes":"767"},{"name":"Deakin University/Burwood Hwy (Burwood)","category":"bus","lat":-37.849962,"lon":145.115841,"routes":"767"},{"name":"Talbett St/Station St (Burwood)","category":"bus","lat":-37.853093,"lon":145.119422,"routes":"767"},{"name":"Talbett St/Station St (Burwood)","category":"bus","lat":-37.852951,"lon":145.119573,"routes":"767"},{"name":"Havelock St/Station St (Burwood)","category":"bus","lat":-37.851351,"lon":145.119875,"routes":"767"},{"name":"Station St/Burwood Hwy (Burwood)","category":"bus","lat":-37.850666,"lon":145.119256,"routes":"767"},{"name":"Burwood Hwy/Station St (Burwood)","category":"bus","lat":-37.850262,"lon":145.119948,"routes":"732"},{"name":"Burwood Hwy/Station St (Burwood)","category":"bus","lat":-37.850319,"lon":145.120117,"routes":"732"},{"name":"Delany Ave/Station St (Burwood)","category":"bus","lat":-37.848701,"lon":145.120397,"routes":"732"},{"name":"Finch St/Burwood Hwy (Burwood)","category":"bus","lat":-37.851199,"lon":145.123868,"routes":"732"},{"name":"Finch St/Burwood Hwy (Burwood)","category":"bus","lat":-37.850891,"lon":145.123774,"routes":"732"},{"name":"Bronte Ave/Station St (Burwood)","category":"bus","lat":-37.847557,"lon":145.120415,"routes":"732"},{"name":"Pheasant St/Burwood Hwy (Burwood)","category":"bus","lat":-37.851398,"lon":145.125591,"routes":"732"},{"name":"Pheasant St/Burwood Hwy (Burwood)","category":"bus","lat":-37.85111,"lon":145.125666,"routes":"732"},{"name":"Box Hill Bus Station/Station St (Box Hill)","category":"bus","lat":-37.819369,"lon":145.122164,"routes":"271"},{"name":"Box Hill Bus Station/Station St (Box Hill)","category":"bus","lat":-37.81937,"lon":145.122243,"routes":"903"},{"name":"Box Hill Bus Station/Station St (Box Hill)","category":"bus","lat":-37.819245,"lon":145.122326,"routes":"767,768,281"},{"name":"Box Hill Gardens/Station St (Box Hill)","category":"bus","lat":-37.815144,"lon":145.124565,"routes":"903,612"},{"name":"Box Hill Bus Station/Station St (Box Hill)","category":"bus","lat":-37.819531,"lon":145.122205,"routes":"903"},{"name":"Box Hill Bus Station/Station St (Box Hill)","category":"bus","lat":-37.819828,"lon":145.122141,"routes":"284,279"},{"name":"Box Hill Bus Station/Station St (Box Hill)","category":"bus","lat":-37.819266,"lon":145.122484,"routes":"732,201"},{"name":"Box Hill Bus Station/Station St (Box Hill)","category":"bus","lat":-37.819483,"lon":145.122581,"routes":"733"},{"name":"Box Hill Bus Station/Station St (Box Hill)","category":"bus","lat":-37.819627,"lon":145.122532,"routes":"766,765"},{"name":"Box Hill Bus Station/Station St (Box Hill)","category":"bus","lat":-37.81978,"lon":145.122505,"routes":"735"},{"name":"Whitehorse Rd/Station St (Box Hill)","category":"bus","lat":-37.817478,"lon":145.123972,"routes":"903,612"},{"name":"Whitehorse Rd/Station St (Box Hill)","category":"bus","lat":-37.81766,"lon":145.124081,"routes":"903,612"},{"name":"Station St/Rutland Rd (Box Hill)","category":"bus","lat":-37.819766,"lon":145.123892,"routes":"765,733"},{"name":"Watts St/Whitehorse Rd (Box Hill)","category":"bus","lat":-37.818082,"lon":145.125695,"routes":"271,279,270"},{"name":"Alan St/Dorking Rd (Box Hill)","category":"bus","lat":-37.804316,"lon":145.133335,"routes":"270"},{"name":"Alan St/Dorking Rd (Box Hill North)","category":"bus","lat":-37.804561,"lon":145.13342,"routes":"270"},{"name":"Watts St/Whitehorse Rd (Box Hill)","category":"bus","lat":-37.8186,"lon":145.125966,"routes":"271,279,270"},{"name":"Trawool St/Dorking Rd (Box Hill North)","category":"bus","lat":-37.805926,"lon":145.133158,"routes":"270"},{"name":"Trawool St/Dorking Rd (Box Hill North)","category":"bus","lat":-37.806374,"lon":145.132954,"routes":"270"},{"name":"Wimmera St/Dorking Rd (Box Hill)","category":"bus","lat":-37.80879,"lon":145.132462,"routes":"270"},{"name":"Springfield Rd/Dorking Rd (Box Hill North)","category":"bus","lat":-37.808828,"lon":145.132597,"routes":"270"},{"name":"Tyne St/Dorking Rd (Box Hill North)","category":"bus","lat":-37.810866,"lon":145.13208,"routes":"270"},{"name":"Tyne St/Dorking Rd (Box Hill North)","category":"bus","lat":-37.81094,"lon":145.132214,"routes":"270"},{"name":"Medway St/Dorking Rd (Box Hill North)","category":"bus","lat":-37.812519,"lon":145.131777,"routes":"270"},{"name":"McKean St/Dorking Rd (Box Hill North)","category":"bus","lat":-37.812998,"lon":145.131822,"routes":"270"},{"name":"45 Dorking Rd (Box Hill)","category":"bus","lat":-37.815835,"lon":145.131171,"routes":"270"},{"name":"40 Dorking Rd (Box Hill North)","category":"bus","lat":-37.816367,"lon":145.131169,"routes":"270"},{"name":"Our Lady of Sion College/Whitehorse Rd (Box Hill)","category":"bus","lat":-37.818771,"lon":145.129915,"routes":"279,271"},{"name":"Our Lady of Sion College/Whitehorse Rd (Box Hill)","category":"bus","lat":-37.81887,"lon":145.129924,"routes":"279,271"},{"name":"Whitehorse Rd/Dorking Rd (Box Hill)","category":"bus","lat":-37.818323,"lon":145.130631,"routes":"270"},{"name":"Whitehorse Rd/Dorking Rd (Box Hill)","category":"bus","lat":-37.818083,"lon":145.130841,"routes":"270"},{"name":"1100 Whitehorse Rd (Box Hill)","category":"bus","lat":-37.819232,"lon":145.132823,"routes":"279,271"},{"name":"Simpsons Rd/Whitehorse Rd (Box Hill)","category":"bus","lat":-37.81914,"lon":145.133291,"routes":"279,271"},{"name":"Springfield Rd/Middleborough Rd (Blackburn North)","category":"bus","lat":-37.808917,"lon":145.140512,"routes":"303,279"},{"name":"Springfield Rd/Middleborough Rd (Blackburn North)","category":"bus","lat":-37.80857,"lon":145.140736,"routes":"303,279"},{"name":"Ashley St/Middleborough Rd (Box Hill North)","category":"bus","lat":-37.811011,"lon":145.140096,"routes":"279"},{"name":"Kerr St/Middleborough Rd (Blackburn)","category":"bus","lat":-37.81113,"lon":145.140206,"routes":"279"},{"name":"Lexton Rd/Middleborough Rd (Box Hill North)","category":"bus","lat":-37.812881,"lon":145.139822,"routes":"279"},{"name":"Lexton Rd/Middleborough Rd (Box Hill North)","category":"bus","lat":-37.812677,"lon":145.14002,"routes":"279"},{"name":"Box Hill HS/Whitehorse Rd (Box Hill)","category":"bus","lat":-37.819689,"lon":145.136674,"routes":"279,271"},{"name":"Box Hill City Oval/Whitehorse Rd (Box Hill)","category":"bus","lat":-37.819592,"lon":145.136779,"routes":"279,271"},{"name":"Margaret St/Middleborough Rd (Box Hill North)","category":"bus","lat":-37.815128,"lon":145.139425,"routes":"279"},{"name":"Tara Ave/Middleborough Rd (Blackburn)","category":"bus","lat":-37.815174,"lon":145.139526,"routes":"279"},{"name":"Davey St/Middleborough Rd (Box Hill)","category":"bus","lat":-37.817238,"lon":145.138985,"routes":"279"},{"name":"Attunga St/Middleborough Rd (Blackburn)","category":"bus","lat":-37.817159,"lon":145.139112,"routes":"279"},{"name":"Minna St/Whitehorse Rd (Blackburn)","category":"bus","lat":-37.819598,"lon":145.139483,"routes":"279,271"},{"name":"Malabar Rd/Whitehorse Rd (Box Hill)","category":"bus","lat":-37.819124,"lon":145.140278,"routes":"279,271"},{"name":"Service Rd/Whitehorse Rd (Blackburn)","category":"bus","lat":-37.818307,"lon":145.142719,"routes":"279,271"},{"name":"Frankcom St/Whitehorse Rd (Blackburn)","category":"bus","lat":-37.818487,"lon":145.142737,"routes":"279,271"},{"name":"Iris St/Warrigal Rd (Burwood)","category":"bus","lat":-37.844923,"lon":145.096673,"routes":"903,766"},{"name":"Lewis St/Thomas St (Camberwell)","category":"bus","lat":-37.842665,"lon":145.094163,"routes":"766"},{"name":"Oxford St/Warrigal Rd (Camberwell)","category":"bus","lat":-37.844749,"lon":145.096552,"routes":"903,766"},